State,District,Latitude,Longitude,Population,Male_Literate,Female_Literate,SC,Male_SC,Female_SC,ST,Male_ST,Female_ST,Workers,Male_Workers,Female_Workers,Main_Workers,Marginal_Workers,Non_Workers,Cultivator_Workers,Agricultural_Workers,Household_Workers,Other_Workers,Hindus,Muslims,Christians,Sikhs,Buddhists,Jains,LPG_or_PNG_Households,Housholds_with_Electric_Lighting,Households_with_Internet,Households,Below_Primary_Education,Primary_Education,Middle_Education,Secondary_Education,Higher_Education,Graduate_Education,Age_Group_0_29,Age_Group_30_49,Age_Group_50,Households_with_Car_Jeep_Van,Households_with_Scooter_Motorcycle_Moped,sex_ratio,literacy_rate
Andhra Pradesh,Adilabad,19.284513950073435,78.81321233480176,2741239,856350,626997,488596,242844,245752,495794,247472,248322,1323667,748939,574728,1066460,257207,1417572,363737,484912,84661,390357,2399901,275970,15422,1377,25510,617,194954,566108,5512,817714,232470,344167,281752,225957,143143,100226,1536378,704551,422522,8338,96998,100.0,54.0
Andhra Pradesh,Anantapur,14.312065561843148,77.4601584478577,4081148,1338474,972486,583135,292379,290756,154127,78573,75554,2036166,1208544,827622,1679655,356511,2044982,413253,879537,105343,638033,3599372,443456,20463,932,341,1417,223016,897970,8606,1244428,462273,720357,582075,331793,162175,144915,2189396,1104565,739612,9915,144214,98.0,57.0
Andhra Pradesh,Chittoor,13.33109263067696,78.92763898886037,4174064,1484794,1183084,785760,389582,396178,159165,79756,79409,1933357,1202223,731134,1669852,263505,2240707,434544,748093,57269,693451,3737588,397870,24129,867,253,1322,324406,944555,13763,1303870,522961,770836,673197,548336,265199,246409,2148179,1159053,807430,16296,186568,100.0,64.0
Andhra Pradesh,East Godavari,16.782718320784902,82.2432074720511,5154296,1716933,1571644,945269,468883,476386,213195,104422,108773,2093681,1545831,547850,1748117,345564,3060615,160407,1122046,57853,753375,4983330,77777,77825,738,413,4149,479914,1297273,22411,1605841,669420,947606,797497,521562,271809,263023,2724328,1478954,948122,25381,232073,101.0,64.0
Andhra Pradesh,Guntur,15.884925767634847,80.58657614107885,4887813,1634726,1325715,957407,476333,481074,247089,125105,121984,2381624,1442370,939254,2106326,275298,2506189,302341,1227956,47436,803891,4217597,559770,89763,764,323,3282,648568,1186028,19383,1582990,736270,845810,674957,453446,246580,221924,2583462,1371811,928462,17424,190079,100.0,61.0
Andhra Pradesh,Hyderabad,17.38971555555556,78.46668888888888,3943323,1542688,1349467,247927,124313,123614,48937,25556,23381,1413297,1045585,367712,1096081,317216,2530026,28308,23029,46157,1315803,2046051,1713405,87522,11446,1268,19560,581509,869721,149034,1066289,230962,596591,685215,811501,517425,558090,2249130,1068243,542669,124106,439890,95.0,73.0
Andhra Pradesh,Karimnagar,18.515483193277312,79.43765428571413,3776269,1257238,949591,709757,352481,357276,106745,53495,53250,1876768,1049463,827305,1590304,286464,1899501,360390,756859,168340,591179,3491139,244723,24979,2086,332,312,344667,926768,8831,1165280,340372,453505,482842,463403,293493,256633,1940234,1031735,728494,14175,192965,101.0,58.0
Andhra Pradesh,Khammam,17.683921325051784,80.67008643892335,2797370,901640,728594,462896,229905,232991,765565,378532,387033,1410062,802906,607156,1215871,194191,1387308,224972,804537,19799,360754,2595321,158887,33463,655,217,459,219710,668519,8628,870625,295639,346118,329630,238811,154774,160804,1530602,774583,477955,11887,115078,101.0,58.0
Andhra Pradesh,Krishna,16.143872753151673,81.14805061000413,4517398,1598959,1410759,871063,435412,435651,132464,66734,65730,2048880,1327299,721581,1744978,303902,2468518,150166,1006976,48444,843294,4023678,307043,145598,1393,863,6320,632890,1163932,30438,1476334,618101,692968,630603,531821,312753,328454,2340943,1284630,833959,27969,212111,99.0,67.0
Andhra Pradesh,Kurnool,15.43759715142429,77.90086836581717,4053463,1246369,880792,737945,370215,367730,82831,42052,40779,2029425,1164122,865303,1757520,271905,2024038,310954,1037302,60791,620378,3328380,670737,33165,737,255,2235,195001,816721,10081,1090835,521327,672951,466940,271828,152453,115504,2368684,1053618,609027,10622,118153,99.0,52.0
Andhra Pradesh,Mahbubnagar,16.639546224256293,77.98933089244859,4053028,1158386,782260,708954,356099,352855,364269,187035,177234,2082501,1140067,942434,1815643,266858,1970527,569142,931084,57846,524429,3673456,334172,21345,658,290,388,136843,757821,6153,1010015,419379,596134,441585,308575,169083,98227,2360874,1027525,637430,12615,121553,98.0,48.0
Andhra Pradesh,Medak,17.889304978038055,78.13778901903379,3033288,953406,683731,537947,266413,271534,168985,86574,82411,1442203,837874,604329,1195494,246709,1591085,353221,571129,67642,450211,2637313,342449,34301,1309,554,457,163074,604719,8635,789132,324267,503713,481984,373729,201928,127493,1735769,779738,509368,14362,119276,99.0,54.0
Andhra Pradesh,Nalgonda,17.113250515463907,79.16984453608244,3488809,1160757,840262,637385,318359,319026,394279,203876,190403,1741693,976428,765265,1493419,248274,1747116,325224,863131,45124,508214,3249231,188646,35025,937,241,250,228818,789225,7715,1030937,369537,518669,471233,367424,238695,196134,1932349,897137,651748,18927,143010,98.0,57.0
Andhra Pradesh,Nizamabad,18.429485849056604,78.07523490566035,2551335,790214,599596,371074,178798,192276,192941,95679,97262,1261076,684320,576756,1055965,205111,1290259,278102,448281,171311,363382,2123426,391596,19653,2357,1847,542,186740,545913,5261,720298,269487,421399,338668,396396,223365,141850,1399773,676401,437573,10088,102049,104.0,54.0
Andhra Pradesh,Prakasam,15.489039001601704,80.11665790176184,3397448,1107686,796749,787861,397242,390619,151145,76677,74468,1700567,991842,708725,1463508,237059,1696881,280029,889218,42603,488717,3150195,220654,18775,266,97,204,290947,763746,6151,1087575,489805,495556,368919,249034,142026,133627,1832695,917391,641707,9071,105940,98.0,56.0
Andhra Pradesh,Srikakulam,18.570900998697432,84.25874814010675,2703114,857824,637557,255664,125214,130450,166118,81382,84736,1290288,766483,523805,936244,354044,1412826,165317,700833,34479,389659,2666950,9025,18879,193,77,160,149554,615432,3988,902436,291793,348354,319244,251521,146721,121213,1423119,747385,528736,5264,64087,101.0,55.0
Andhra Pradesh,Vizianagaram,18.28329696032972,83.45982854198873,2344474,707503,530885,247728,121493,126235,235556,114687,120869,1157962,679289,478673,953215,204747,1186512,212285,557254,27469,360954,2299129,16423,17853,380,114,815,140361,527736,4453,749514,250446,300057,257468,186576,115144,103591,1206366,666394,451469,5002,61858,102.0,53.0
Andhra Pradesh,Warangal,18.01752608695651,79.87422028985509,3512576,1179790,885233,616102,307709,308393,530656,268976,261680,1705655,960926,744729,1442197,263458,1806921,401646,758092,43550,502367,3273755,197333,31377,1453,253,569,237349,828077,12952,1046987,314252,457529,454322,430242,279234,248942,1891954,941452,664872,15727,139404,100.0,59.0
Andhra Pradesh,West Godavari,16.63297943925236,81.45912990654196,3936966,1379223,1273166,811698,403693,408005,109072,53367,55705,1773112,1199338,573774,1534166,238946,2163854,155275,1061787,33861,522189,3733191,86142,109120,288,209,1578,435334,1017568,12050,1255628,595331,718960,585595,415178,215863,207586,2051513,1127764,755533,14687,182698,100.0,67.0
Arunachal Pradesh,Changlang,27.36048479338845,96.37552644628106,148226,44027,29147,0,0,0,53878,27061,26817,62966,39329,23637,50765,12201,85260,39732,4208,496,18530,47683,2134,35969,94,50381,95,4762,14593,170,39920,20425,22537,17354,10032,5641,3633,96630,35018,16414,1102,2450,93.0,49.0
Arunachal Pradesh,East Kameng,27.371194055944056,93.04741486013997,78690,21599,16850,0,0,0,72400,35266,37134,31710,16424,15286,27123,4587,46980,21835,1063,273,8539,12333,652,37136,36,452,23,3583,5318,57,19718,11713,10487,8852,6213,4510,2330,53752,17922,6960,577,1382,103.0,49.0
Arunachal Pradesh,East Siang,28.15382352941176,95.06499226006191,99214,34210,28366,0,0,0,69979,34533,35446,40222,23591,16631,33578,6644,58992,20185,3565,493,15979,27854,2289,18254,69,776,30,4866,14231,450,29021,9938,13713,13968,10937,9498,6540,61993,25334,11802,2072,4568,98.0,63.0
Arunachal Pradesh,Kurung Kumey,28.04853351800553,93.24531994459834,92076,20258,16348,0,0,0,90764,44459,46305,38044,18429,19615,24372,13672,54032,27417,2947,833,6847,4859,471,51189,43,121,81,586,3911,95,19695,12661,15054,12264,6997,4353,2031,64379,20713,6836,605,884,103.0,40.0
Arunachal Pradesh,Lohit,27.946785273972623,96.59670770547945,145726,48380,34682,0,0,0,47410,23457,23953,60945,38910,22035,50754,10191,84781,29909,7789,786,22461,99020,3846,10684,210,24452,104,6549,17157,312,44971,19306,25179,20643,13070,7612,5180,94890,35493,15195,1203,3884,91.0,57.0
Arunachal Pradesh,Lower Dibang Valley,28.32651730103806,95.76567335640142,54080,18087,13762,0,0,0,25974,12649,13325,22326,14102,8224,19829,2497,31754,9687,3354,233,9052,28915,2247,9213,33,2932,19,3068,5932,207,15950,5875,7957,7351,5508,3570,2795,35140,13254,5652,703,2128,93.0,59.0
Arunachal Pradesh,Lower Subansiri,27.70849297297297,93.96226108108112,83030,29470,24587,0,0,0,72911,35803,37108,30202,17339,12863,22669,7533,52828,13656,1968,435,14143,9551,1482,34402,27,193,13,4211,12493,381,23477,8492,10821,11661,9861,7674,5230,55258,20305,7412,2002,2973,98.0,65.0
Arunachal Pradesh,Papum Pare,27.273529716981127,93.54468183962264,176573,65794,55254,0,0,0,117216,56469,60747,65772,41263,24509,51157,14615,110801,14104,1859,1543,48266,57027,6148,84397,310,4768,139,22966,30539,2477,50488,15368,21956,21376,20007,17342,13840,120592,43812,11856,6454,8668,98.0,69.0
Arunachal Pradesh,Tawang,27.680683962264148,91.82504245283016,49977,17720,8353,0,0,0,34811,16770,18041,28561,19554,9007,24430,4131,21416,7631,1581,114,19235,11842,787,776,1164,34920,72,3794,8635,96,13182,4904,4730,4029,2140,1989,1379,30709,13849,5399,895,205,71.0,52.0
Arunachal Pradesh,Tirap,26.94406229508198,95.41470327868862,111975,29313,18661,0,0,0,98372,49365,49007,50169,27545,22624,44262,5907,61806,35967,1811,836,11555,20682,1103,83361,61,778,43,3104,16026,98,24920,13585,16989,12077,7834,4305,2134,71785,25669,14423,679,1369,94.0,43.0
Arunachal Pradesh,Upper Siang,28.8309244897959,95.00155765306124,35320,10723,7472,0,0,0,28468,14413,14055,17644,9968,7676,14524,3120,17676,9976,804,591,6273,5261,411,5643,27,2577,7,1504,6198,97,10751,3952,5584,4915,2935,2211,1349,21090,8910,5252,430,1031,89.0,52.0
Arunachal Pradesh,Upper Subansiri,28.277196566523585,93.8991435622318,83448,24807,20471,0,0,0,78323,38570,39753,33370,17898,15472,25717,7653,50078,21690,1846,481,9353,13474,521,8779,28,297,11,3123,5373,139,19214,10219,16118,15339,10348,8017,4276,56054,20055,7230,569,1435,100.0,54.0
Arunachal Pradesh,West Kameng,27.46486582278483,92.65015750452083,83947,29566,18926,0,0,0,46380,22771,23609,42493,28313,14180,34752,7741,41454,14476,1705,801,25511,31265,1970,8466,328,36087,71,7133,14188,202,24195,8836,10317,8428,5633,3987,2693,53026,22362,8493,1299,1045,82.0,58.0
Arunachal Pradesh,West Siang,28.106296920289843,94.53510344202908,112274,36777,27969,0,0,0,92783,45746,47037,49177,29156,20021,43000,6177,63097,28852,1384,298,18643,15881,2218,29969,577,3311,49,6115,14204,303,30775,14227,17675,15908,11441,8418,6030,70415,28305,13469,1964,4023,93.0,58.0
Assam,Barpeta,26.427872264631056,90.97912010178116,1693622,499038,398020,95320,49165,46155,27344,13530,13814,561824,445297,116527,439453,122371,1131798,205259,98946,30342,227277,492966,1198036,1020,112,49,399,50806,84804,2078,499381,210607,307884,300845,121924,87377,46947,1072312,405046,215355,5560,24913,95.0,53.0
Assam,Bongaigaon,26.45012521994133,90.6734296187684,738804,237114,196964,82784,42513,40271,18835,9377,9458,255806,197542,58264,191671,64135,482998,83442,47406,9485,115473,359145,371033,5924,384,236,871,29937,49866,2523,220393,93591,138294,133643,55924,35491,20221,458796,184849,94939,5837,16579,97.0,59.0
Assam,Cachar,24.815570668693017,92.86849650455927,1736617,639946,534182,264897,136051,128846,17569,8736,8833,608062,469752,138310,471259,136803,1128555,120356,68664,24466,394576,1038985,654816,37635,280,341,1673,62135,140205,5316,435160,256855,447993,379469,156156,79766,45341,1048990,444899,241776,8700,22647,96.0,68.0
Assam,Darrang,26.58463215962442,92.04141338028155,928500,268666,218373,40260,20566,19694,8419,4300,4119,324843,246864,77979,241456,83387,603657,129456,81617,10542,103228,327322,597392,1688,431,57,724,17676,45444,1166,288706,119027,163277,161153,59039,47398,22267,583436,226525,118102,3533,13662,95.0,52.0
Assam,Dhemaji,27.586533438485816,94.71336908517353,686133,237761,185267,44225,23006,21219,325560,165449,160111,316800,186577,130223,201364,115436,369333,231937,19181,7224,58458,655052,13475,8711,297,911,167,16547,28195,1192,228262,79107,138838,136371,80804,55399,28006,434221,169630,82051,3504,12293,95.0,62.0
Assam,Dibrugarh,27.30612284482757,95.0998282327587,1326335,491361,393170,58876,30517,28359,102871,51835,51036,560557,368013,192544,391597,168960,765778,135194,61209,14362,349792,1198401,64526,52968,2261,4673,1055,76292,136685,8817,377015,143189,243607,301287,139813,89500,59380,767147,371864,186774,21112,44664,96.0,67.0
Assam,Goalpara,26.017277777777807,90.59869891598912,1008183,304302,259275,45094,22999,22095,231570,116013,115557,362573,267118,95455,266376,96197,645610,126549,75828,14346,145850,347878,579929,77862,771,194,477,21455,78641,1364,268114,124700,213510,183904,73683,39885,18294,650509,239831,117427,4112,15292,96.0,56.0
Assam,Golaghat,26.377219709794485,93.82583397823468,1066888,396475,325289,62298,31807,30491,111765,56420,55345,479928,309104,170824,331210,148718,586960,190590,66616,15068,207654,917426,90312,50582,1131,3863,530,40889,82345,3073,327083,117393,223902,261192,111145,66197,36887,629153,289085,148244,9295,27300,96.0,68.0
Assam,Hailakandi,24.457496089385486,92.59154664804475,659296,226836,180530,70659,36369,34290,691,354,337,214240,170792,43448,165193,49047,445056,65673,31248,7313,110006,251194,397653,8480,84,490,247,11035,44143,1211,175417,88596,177984,139029,50056,28504,11608,419921,156243,82841,2583,5589,95.0,62.0
Assam,Jorhat,26.76244824016563,94.30197722567289,1092256,432335,362594,88665,45194,43471,139971,70795,69176,498618,320746,177872,338635,159983,593638,145885,53153,31543,268037,1008219,54684,21051,1540,2378,719,71639,122063,5651,367154,99454,201680,295444,128050,97025,62608,604908,315550,171062,16081,44159,96.0,73.0
Assam,Kamrup,26.170939452054807,91.58863273972592,1517542,550219,445100,107827,55237,52590,182038,92094,89944,628954,428492,200462,421244,207710,888588,185803,99522,69106,274523,877495,601784,33297,319,185,1330,70272,122191,3109,434445,163849,290097,353861,154831,118849,55011,895775,408232,212740,10052,34461,95.0,66.0
Assam,Karbi Anglong,26.08966454598031,93.11536570271832,956313,314253,242961,44961,23436,21525,538738,272460,266278,383441,246193,137248,260482,122959,572872,223020,60952,9861,89608,766000,20290,157789,370,6260,397,18763,53918,1923,252876,109324,212224,199289,93137,40602,18225,618633,233739,103123,3934,13699,95.0,58.0
Assam,Karimganj,24.69660712250711,92.3679498575498,1228686,435942,359355,157890,81384,76506,1940,994,946,399171,319798,79373,293392,105779,829515,94348,67033,17435,220355,521962,692489,11990,114,446,524,28261,70951,1933,294640,198059,333885,257931,76685,39637,21408,779850,284368,163990,3757,7289,96.0,65.0
Assam,Kokrajhar,26.497246635730868,90.13997470997688,887142,275220,214085,29570,15386,14184,278665,139579,139086,341131,236322,104809,253110,88021,546011,156753,56330,12423,115625,529068,252271,101091,93,1718,396,15089,41373,1218,222011,116899,166013,154715,78788,39571,17287,552671,224715,108956,2996,12191,96.0,55.0
Assam,Lakhimpur,27.14128805970149,94.0775949253732,1042137,375552,307934,81840,41689,40151,249426,126716,122710,429995,282250,147745,283533,146462,612142,239377,43922,10983,135713,797130,193476,46217,412,1074,250,32104,60296,1948,327933,126950,212080,217497,107326,82885,44212,639385,268872,133615,6904,25699,97.0,66.0
Assam,Nagaon,26.26462170626351,92.9306191144708,2823768,921850,788866,266350,136473,129877,115153,57759,57394,979998,766728,213270,734993,245005,1843770,346123,196174,38122,399579,1225246,1563203,26844,3036,1073,1162,89206,195631,5121,799185,392616,638088,576214,199792,115864,66994,1778277,678034,366112,13979,47693,96.0,61.0
Assam,Nalbari,26.46323767605632,91.40598521126763,771639,293184,238587,60216,30654,29562,23364,11692,11672,267623,210202,57421,196773,70850,504016,58070,34984,19302,155267,491582,277488,429,62,27,1004,37849,68313,1631,238944,75866,141690,192771,81507,71734,39368,442061,211320,117809,4785,18810,95.0,69.0
Assam,Sonitpur,26.73514926829268,92.85197804878044,1924110,620525,488047,109130,55817,53313,232207,117685,114522,770606,537195,233411,558325,212281,1153504,249123,114865,25719,380899,1422824,350536,138166,1363,5088,1003,70047,133368,4358,547853,216097,416218,377653,141373,90385,49901,1159991,501239,261648,11760,39796,96.0,58.0
Assam,Tinsukia,27.53549291139241,95.69055949367085,1327929,453449,344873,37688,19443,18245,82066,41769,40297,557196,366623,190573,410188,147008,770733,149482,47756,13241,346717,1181347,48373,76877,1999,16228,837,70471,161718,5135,381614,150893,266717,276292,109805,61040,38152,799874,352158,175377,13323,31363,95.0,60.0
Bihar,Araria,26.211528119180603,87.30766554934816,2811569,727643,468125,382654,198247,184407,38848,19887,18961,1069893,708391,361502,696410,373483,1741676,222913,691947,24367,130666,1593525,1207442,4116,371,187,1910,17004,43290,2561,703274,625357,426625,206161,112955,68177,39627,1872943,612012,324091,5041,31983,92.0,43.0
Bihar,Aurangabad,24.774291867469877,84.45986024096379,2540073,868733,597269,612064,316161,295903,1033,500,533,837770,599157,238613,480286,357484,1702303,178525,426096,40652,192497,2291133,237353,2218,295,334,775,24106,44456,2362,477297,559512,482199,302662,253142,136783,91371,1626969,564571,340948,7145,32335,93.0,58.0
Bihar,Aurangabad,24.774291867469877,84.45986024096379,3701282,1430936,1072901,539368,277228,262140,143366,73876,69490,1575079,1015864,559215,1446636,128443,2126203,554518,396630,28033,595898,2545438,786677,15991,5142,309093,30981,246324,589477,23258,979132,381695,686271,422964,537936,310762,253253,2211996,909771,571932,33322,230188,92.0,68.0
Maharashtra,Aurangabad,20.0979228832952,75.32072196796334,2540073,868733,597269,612064,316161,295903,1033,500,533,837770,599157,238613,480286,357484,1702303,178525,426096,40652,192497,2291133,237353,2218,295,334,775,24106,44456,2362,477297,559512,482199,302662,253142,136783,91371,1626969,564571,340948,7145,32335,93.0,58.0
Maharashtra,Aurangabad,20.0979228832952,75.32072196796334,3701282,1430936,1072901,539368,277228,262140,143366,73876,69490,1575079,1015864,559215,1446636,128443,2126203,554518,396630,28033,595898,2545438,786677,15991,5142,309093,30981,246324,589477,23258,979132,381695,686271,422964,537936,310762,253253,2211996,909771,571932,33322,230188,92.0,68.0
Bihar,Banka,24.832355642023337,86.8664916342413,2034763,590961,374360,247858,129663,118195,90432,45901,44531,771080,517817,253263,374097,396983,1263683,172440,462614,26680,109346,1772655,250925,6138,139,113,94,15459,62359,1704,444096,408188,386707,196305,120653,63103,35767,1291235,462080,278863,3258,24398,91.0,47.0
Bihar,Begusarai,25.54302613168723,86.12560144032932,2970541,918507,630166,432270,227481,204789,1597,848,749,938182,715345,222837,591811,346371,2032359,146035,430870,58167,303110,2554330,407348,2209,402,229,276,49493,120373,4644,733625,577601,484502,291877,207136,144783,101836,1951688,644874,369996,9821,41377,89.0,52.0
Bihar,Bhagalpur,25.277192885375477,87.04213814229242,3037766,937669,635397,318569,169667,148902,67180,35545,31635,983528,740056,243472,534129,449399,2054238,135161,475228,60461,312678,2487866,537098,3556,415,180,1050,63241,174534,6764,653161,614644,524322,300767,247079,154643,118843,1952879,674660,397654,8644,47618,88.0,52.0
Bihar,Bhojpur,25.50666439393939,84.49407803030304,2728407,973486,625665,425402,222716,202686,13977,7363,6614,822493,640283,182210,512009,310484,1905914,190896,364875,47985,218737,2518216,197819,2165,544,647,1472,45763,62153,3661,511927,581580,605307,367059,313509,163303,131137,1722387,613072,387389,7391,43689,91.0,59.0
Bihar,Buxar,25.48593018867924,84.08808081760995,1706352,593544,396263,251737,131821,119916,26824,14102,12722,538322,402180,136142,328547,209775,1168030,132472,251790,26122,127938,1591454,105423,2125,248,5090,97,27362,46760,1784,334657,331675,420187,256124,178044,89306,64117,1074754,375372,253998,5341,26325,92.0,58.0
Bihar,Darbhanga,26.146187719298258,85.97387352472099,3937385,1125566,691068,615688,322327,293361,2772,1361,1411,1223640,947927,275713,731347,492293,2713745,236673,642115,44846,300006,3042729,881476,3534,832,245,236,59510,127442,6280,1002713,672797,490534,332382,224622,152540,129597,2535344,865971,529314,10325,52586,91.0,46.0
Bihar,Gaya,24.7266541547278,84.94291217765044,4391418,1368803,928810,1334351,683943,650408,3098,1635,1463,1664062,1076170,587892,1007057,657005,2727356,370759,783505,87178,422620,3876395,488121,3943,913,870,1723,57738,112617,6856,807571,902272,757690,447480,342254,191824,131163,2810026,936630,537333,11827,59202,94.0,52.0
Bihar,Gopalganj,26.44874364161851,84.34636127167629,2562012,793905,589093,320064,159265,160799,60807,29833,30974,728201,539586,188615,363111,365090,1833811,208959,338666,26049,154527,2119262,436057,2463,271,167,133,31193,69375,3707,554058,540603,470828,291624,223776,123249,79109,1642807,546202,370662,9508,51902,102.0,54.0
Bihar,Jamui,24.78418380462726,86.26316298200514,1760405,534385,324203,302649,155849,146800,78793,40185,38608,727571,452288,275283,445352,282219,1032834,156491,331466,105637,133977,1525746,217621,8443,162,159,87,12984,32633,1839,356760,420472,317612,153973,104211,56137,29633,1135919,392052,227016,4842,18411,92.0,49.0
Bihar,Jehanabad,25.155679045643165,84.9208124481328,1125313,374412,244469,222974,115034,107940,1285,667,618,365378,266423,98955,251690,113688,759935,86108,179519,15075,84676,1045117,75742,691,148,248,60,15507,27641,1106,214792,211761,165906,117558,112966,68748,45519,714244,254582,155106,2522,13682,92.0,55.0
Bihar,Katihar,25.56565356037151,87.70466083591326,3071029,762256,517934,263100,136429,126671,179971,92190,87781,1013566,760522,253044,667602,345964,2057463,168857,672291,20577,151841,1684589,1365645,8659,2754,212,507,32570,60900,2941,738070,472616,444260,237243,133811,88498,57114,2054202,660403,353483,5118,35004,92.0,42.0
Bihar,Khagaria,25.53558891454964,86.56593256351037,1666886,461153,306875,247161,130191,116970,675,352,323,560805,398216,162589,306283,254522,1106081,104517,325731,20816,109741,1486989,175588,1253,143,79,86,15401,40641,1580,394703,350601,233494,130004,100555,65931,38697,1114645,355531,195796,3120,14047,89.0,46.0
Bihar,Kishanganj,26.324336758321294,87.95045007235886,1690400,439921,305135,113118,57964,55154,64224,32506,31718,529064,421192,107872,384416,144648,1161336,107862,321867,11633,87702,531236,1149095,5783,398,183,1476,11715,58718,1093,445150,356401,235779,89025,42778,25989,15386,1139615,361114,188447,2436,19539,95.0,44.0
Bihar,Lakhisarai,25.183449321266963,86.12825701357468,1000912,305182,202088,153209,80069,73140,8333,4247,4086,326576,240494,86082,201866,124710,674336,78532,159970,13546,74528,956396,40886,487,140,52,78,12938,44491,1186,207645,172076,149312,111684,85807,48001,27261,650642,218840,130655,2415,9577,90.0,51.0
Bihar,Madhepura,25.77341929460581,86.8978443983403,2001762,517666,316911,346275,179337,166938,12532,6442,6090,777546,496046,281500,443507,334039,1224216,190809,484062,16347,86328,1753829,241760,1342,170,60,133,12302,23236,1397,510278,340813,189431,114474,99437,79891,44955,1311771,444235,242382,4560,21254,91.0,42.0
Bihar,Madhubani,26.41380538172716,86.16328360450552,4487379,1340085,815253,587158,303389,283769,3990,2056,1934,1636938,1105947,530991,1074091,562847,2850441,396880,940642,54934,244482,3652168,818912,3262,564,328,442,47090,113281,5319,1088786,783888,771417,520875,303114,170563,137780,2860455,1009424,611899,11636,59254,93.0,48.0
Bihar,Munger,25.198537962962963,86.54173672839504,1367765,473741,328076,183846,97195,86651,21404,10995,10409,426658,327453,99205,233402,193256,941107,45953,196449,16690,167566,1252319,110416,1815,338,95,145,49141,90461,2653,308063,226699,158699,146414,147152,101907,64469,860147,316713,188319,3755,24259,88.0,59.0
Bihar,Muzaffarpur,26.18664417177915,85.32745092024543,4801062,1487117,1022115,751975,393135,358840,5979,3124,2855,1547586,1195308,352278,910304,637282,3253476,273436,769001,65253,439896,4032773,745546,5149,933,288,382,87796,180651,10290,1119394,1092952,743623,419433,299475,194920,138916,3016735,1079189,697108,23333,94249,90.0,52.0
Bihar,Nalanda,25.229345508982053,85.48053113772461,2877653,919558,600375,607672,315240,292432,1442,728,714,1045420,703405,342015,740949,304471,1832233,221240,534021,52585,237574,2669775,198033,1978,393,414,561,43761,101378,4156,616663,581978,486266,320839,274556,177358,133032,1829128,642197,403129,7955,29239,92.0,53.0
Bihar,Nawada,24.825708836206903,85.61594568965519,2219146,659474,431538,565112,290050,275062,2045,997,1048,817041,539439,277602,508509,308532,1402105,216400,397505,40018,163118,1964620,244394,1299,250,176,279,20522,31162,1841,424874,601011,368649,195072,161127,95943,64585,1440781,485628,288805,3991,15948,94.0,49.0
Bihar,Pashchim Champaran,27.16064352201258,84.30265911949685,3935042,1091226,668255,553944,289191,264753,250046,127680,122366,1478947,999282,479665,797544,681403,2456095,217539,998833,38691,223884,3047427,865090,8469,926,1337,296,38414,57546,3495,936134,1053481,543965,250243,159563,98732,70669,2544205,888205,497793,10911,48435,91.0,45.0
Bihar,Patna,25.40297114503818,85.3198433587787,5838465,2028047,1431632,920918,482088,438830,9069,4717,4352,1881886,1436411,445475,1371267,510619,3956579,271216,658203,85349,867118,5356075,439952,12551,4803,1062,2151,321307,546859,40692,1210094,1244842,1095655,920051,698351,463361,452340,3626564,1382654,815638,49821,176114,90.0,59.0
Bihar,Purba Champaran,26.68129336734693,85.00382155612242,5099371,1407603,869354,649726,340363,309363,12461,6454,6007,1737539,1260774,476765,1132789,604750,3361832,349032,1057417,46164,284926,4086453,990349,4865,668,878,464,52358,74979,7719,1243825,1280809,982506,450631,241118,121594,68781,3316422,1122340,648009,19282,78531,90.0,45.0
Bihar,Purnia,25.81714801901739,87.40447606973065,3264619,805261,527065,390991,203201,187790,139490,71391,68099,1143318,803275,340043,776385,366933,2121301,197424,745015,28840,172039,1989420,1255641,7989,614,353,1450,33688,86058,4170,798596,668690,360243,184327,119259,83226,59996,2155512,696556,372692,8390,40178,92.0,41.0
Bihar,Rohtas,24.99170460829495,83.9350762672811,2959918,1061783,738049,549546,286596,262950,31650,16399,15251,924879,707939,216940,542439,382440,2035039,218087,405544,48512,252736,2645415,300487,2889,2569,1584,252,41659,114893,4594,608061,535187,548971,399053,333053,194928,161555,1875174,673742,407193,10819,49892,92.0,61.0
Bihar,Saharsa,25.821270696721303,86.54670819672135,1900661,506374,298622,317249,164518,152731,6009,3101,2908,649898,456724,193174,363326,286572,1250763,164600,356833,18651,109814,1629254,266620,1292,197,60,109,21651,41342,1668,470697,348300,194897,104182,90182,64560,47051,1249692,415863,233870,3824,20489,91.0,42.0
Bihar,Samastipur,25.793205563909765,85.94833323308269,4261566,1293575,849305,803128,417944,385184,1884,975,909,1343400,1037576,305824,907433,435967,2918166,299039,721629,47917,274815,3800598,452370,2126,554,292,231,46123,88021,5379,1056465,781038,710468,438908,284082,186153,129933,2766930,913339,568812,10621,56464,91.0,50.0
Bihar,Saran,25.89656077844312,84.82266287425155,3951862,1285767,871687,474066,242976,231090,36786,18322,18464,1040231,857660,182571,545520,494711,2911631,232097,493461,42103,272570,3534772,406449,2330,371,229,322,51822,94787,4509,777622,793945,693465,433759,361171,213251,148065,2516115,847031,585386,10948,68604,95.0,55.0
Bihar,Sheikhpura,25.12472436548223,85.77839390862943,636342,196431,132245,131115,67582,63533,617,305,312,224655,151569,73086,148002,76653,411687,54511,109696,9917,50531,596102,37653,313,75,41,43,6803,20065,631,132638,129673,110525,59529,52860,33856,19676,413475,136898,85045,1728,6933,93.0,52.0
Bihar,Sheohar,26.458380748663107,85.29539411764709,656246,171645,112053,96655,51089,45566,318,177,141,216372,166693,49679,137804,78568,439874,38727,136334,9119,32192,552492,99342,522,216,73,52,3983,10004,478,166000,128209,91277,37063,25657,16031,10091,421241,139909,93398,1410,7678,89.0,43.0
Bihar,Sitamarhi,26.56570069686413,85.61172491289203,3423574,885188,551606,405714,213624,192090,2989,1585,1404,1114583,865929,248654,753645,360938,2308991,216012,635907,37932,224732,2672311,740101,2897,261,253,188,39465,66263,3460,856964,733380,394422,196321,136500,92783,70549,2206340,739982,449035,7292,38576,90.0,42.0
Bihar,Siwan,26.1736372013652,84.33766552901022,3330464,1115906,814269,386685,195965,190720,87000,43472,43528,932416,730396,202020,462104,470312,2398048,264928,376344,31244,259900,2712635,608282,2618,369,407,359,42384,52935,3834,674372,689880,612635,445257,355277,186817,119164,2115448,713597,498299,10891,64065,99.0,58.0
Bihar,Supaul,26.28157893772896,86.78496465201461,2229076,647672,385611,354249,182545,171704,10168,5242,4926,877682,551718,325964,472649,405033,1351394,201882,554271,22555,98974,1809936,409251,3758,271,136,546,12111,51028,1845,600102,467768,269737,157787,99530,69665,45726,1453438,495020,277610,4064,21885,93.0,46.0
Bihar,Vaishali,25.8134703180212,85.39247597173153,3495021,1152576,774164,738031,387827,350204,2274,1232,1042,1060344,858648,201696,716006,344338,2434677,255017,502637,36958,265732,3152346,333980,2203,707,362,246,47300,70001,4810,750811,810191,487594,370247,291392,178320,124448,2176701,759132,486032,11316,60246,89.0,55.0
Chandigarh,Chandigarh,30.7426,76.75872465753424,1055450,465346,340092,199086,106356,92730,0,0,0,404136,328159,75977,385929,18207,651314,2578,1687,4799,395072,852574,51447,8720,138329,1160,1960,168344,231204,44283,298367,80406,118667,114209,124707,98786,174528,602411,303748,148945,60494,109701,82.0,76.0
Chhattisgarh,Bastar,19.393866751269048,81.52895126903546,1413199,382335,268528,37963,18815,19148,931780,456841,474939,726531,404364,322167,394824,331707,686668,284472,287828,10821,143410,1277975,12413,27951,2099,985,3466,22075,157646,1782,371319,183667,178766,139330,60936,57413,32895,864272,358157,189569,4227,32802,102.0,46.0
Chhattisgarh,Bilaspur,22.356942982456143,81.99770350877188,381956,155599,132021,98989,50271,48718,10693,5485,5208,205871,111543,94328,103406,102465,176085,127169,4138,2561,72003,371973,6984,236,2387,113,10,17262,79146,1574,164445,35817,59489,53515,64730,45695,25474,193671,107367,80497,6573,11397,98.0,75.0
Chhattisgarh,Bilaspur,22.356942982456143,81.99770350877188,2663629,932474,664086,552992,281221,271771,498469,248172,250297,1203197,715467,487730,826568,376629,1460432,276691,572292,21658,332556,2540763,57973,20745,6373,2979,2357,77727,519704,8566,737806,382091,407692,337793,189296,152838,134637,1625484,655032,380114,13137,84851,97.0,60.0
Himachal Pradesh,Bilaspur,31.3780422907489,76.65316079295157,381956,155599,132021,98989,50271,48718,10693,5485,5208,205871,111543,94328,103406,102465,176085,127169,4138,2561,72003,371973,6984,236,2387,113,10,17262,79146,1574,164445,35817,59489,53515,64730,45695,25474,193671,107367,80497,6573,11397,98.0,75.0
Himachal Pradesh,Bilaspur,31.3780422907489,76.65316079295157,2663629,932474,664086,552992,281221,271771,498469,248172,250297,1203197,715467,487730,826568,376629,1460432,276691,572292,21658,332556,2540763,57973,20745,6373,2979,2357,77727,519704,8566,737806,382091,407692,337793,189296,152838,134637,1625484,655032,380114,13137,84851,97.0,60.0
Chhattisgarh,Dhamtari,20.554912627291245,81.7569195519348,799781,303924,242909,58581,28887,29694,207633,102058,105575,402895,226382,176513,335368,67527,396886,135435,182602,7310,77548,777188,10425,2644,1196,667,3612,14568,148926,1016,210481,143128,148544,120146,65196,58875,31319,461125,213021,125429,3069,30621,101.0,68.0
Chhattisgarh,Durg,21.194463849287164,81.33181639511197,3343872,1284612,1018766,458040,229067,228973,397416,196008,201408,1496805,921729,575076,1206793,290012,1847067,392341,560415,22565,521484,3129745,83499,24304,24276,19587,17209,129193,614109,16141,883189,463598,573291,497668,309508,286244,202424,1919832,898241,523656,28840,177048,99.0,69.0
Chhattisgarh,Jashpur,22.77286167664669,83.8703962075848,851669,280656,214759,48844,24317,24527,530378,262731,267647,487360,263645,223715,291349,196011,364309,226866,197558,7553,55383,629509,15336,189588,474,467,694,6628,76783,567,226392,120768,137681,127299,64188,50562,26161,488965,214455,148100,2442,15547,101.0,58.0
Chhattisgarh,Korba,22.491712499999995,82.57604326923074,1206640,433391,315368,124679,63446,61233,493559,246323,247236,521186,333329,187857,350314,170872,685454,113071,221806,7899,178410,1133176,30195,21059,3666,897,753,43357,202380,4544,332653,178191,188303,168387,89167,83166,61215,729708,309479,166959,8677,55579,97.0,62.0
Chhattisgarh,Koriya,23.50412776859501,82.12515636363635,658917,229923,167900,54776,27682,27094,304280,152659,151621,307071,185483,121588,173057,134014,351846,118498,94648,4830,89095,604259,25878,9398,1391,84,1155,25605,80023,1667,181615,143413,109639,87969,47127,38677,26802,399581,165022,94073,3402,26365,97.0,60.0
Chhattisgarh,Mahasamund,21.223727037773354,82.65925427435384,1032754,364089,273874,139581,68968,70613,279896,137339,142557,499260,291858,207402,340802,158458,533494,139199,278073,6135,75853,1008061,12570,5284,2941,521,1495,13200,212487,961,310567,179770,194739,152183,78583,57949,33357,582544,272009,177826,3546,31472,102.0,62.0
Chhattisgarh,Raigarh,22.008265068493166,83.27797698630134,1493984,542756,408883,224942,112111,112831,505609,250473,255136,690167,429211,260956,484875,205292,803817,208313,323788,9959,148107,1422986,17332,47653,2117,781,409,27771,297308,3342,420916,246480,260661,210964,130700,93340,66358,841958,398257,253488,5979,50302,99.0,64.0
Chhattisgarh,Raigarh,22.008265068493166,83.27797698630134,2634200,1059692,880302,134952,67980,66972,305125,153657,151468,1072969,753843,319126,858825,214144,1561231,206975,191182,32919,641893,2239370,227465,17452,7477,121791,12260,328277,547206,38570,959028,231263,407662,335886,441072,221410,204507,1414154,748339,462741,43536,158119,96.0,74.0
Maharashtra,Raigarh,18.453257637845976,73.0090609418579,1493984,542756,408883,224942,112111,112831,505609,250473,255136,690167,429211,260956,484875,205292,803817,208313,323788,9959,148107,1422986,17332,47653,2117,781,409,27771,297308,3342,420916,246480,260661,210964,130700,93340,66358,841958,398257,253488,5979,50302,99.0,64.0
Maharashtra,Raigarh,18.453257637845976,73.0090609418579,2634200,1059692,880302,134952,67980,66972,305125,153657,151468,1072969,753843,319126,858825,214144,1561231,206975,191182,32919,641893,2239370,227465,17452,7477,121791,12260,328277,547206,38570,959028,231263,407662,335886,441072,221410,204507,1414154,748339,462741,43536,158119,96.0,74.0
Chhattisgarh,Raipur,20.88603153846152,82.20032759615388,4063872,1493158,1136591,724250,362284,361966,476446,235271,241175,1757664,1099964,657700,1259138,498526,2306208,383279,708993,34078,631314,3881485,103038,23181,16707,8397,17137,166505,728556,20261,1068500,618508,664470,552373,313247,267265,227382,2454299,1038155,560184,30572,177517,98.0,65.0
Chhattisgarh,Surguja,23.32719278728607,83.23582493887531,2359886,694686,493255,115652,58281,57371,1300628,652799,647829,1155807,649888,505919,622589,533218,1204079,465287,523356,12643,154521,2126195,81442,97432,2303,1287,623,29433,253131,2737,590763,364452,338509,281260,135374,105992,64607,1441436,561915,355077,8096,56480,98.0,50.0
Daman and Diu,Daman,20.431616666666677,72.8392366071429,191173,104316,46032,4262,2224,2038,15240,7702,7538,105521,94502,11019,101717,3804,85652,1845,481,409,102786,171537,16087,2618,169,216,244,25844,49249,1316,71079,8957,28094,30406,26991,14170,9128,122589,52868,15428,3163,14167,53.0,79.0
Daman and Diu,Junagadh,20.72568199498111,70.83985639899612,2743082,1046981,795837,265793,136319,129474,55571,28463,27108,1123709,801859,321850,942709,181000,1619373,367311,333996,9645,412757,2397056,334858,2586,1110,1291,3841,144561,498326,6628,776743,271762,700258,294811,311849,137505,139957,1527888,749156,461650,17447,195597,95.0,67.0
Gujarat,Junagadh,20.929523011609785,70.54733890140345,2743082,1046981,795837,265793,136319,129474,55571,28463,27108,1123709,801859,321850,942709,181000,1619373,367311,333996,9645,412757,2397056,334858,2586,1110,1291,3841,144561,498326,6628,776743,271762,700258,294811,311849,137505,139957,1527888,749156,461650,17447,195597,95.0,67.0
Goa,North Goa,15.548723418714054,73.80667997909038,818008,351738,311322,17606,8712,8894,56606,27824,28782,327658,239125,88533,269437,58221,490350,15402,14120,8862,289274,622213,57941,134169,618,553,546,132612,173951,23440,325089,40968,101521,148792,153887,87513,86781,380926,260533,175035,44342,101378,96.0,81.0
Goa,South Goa,15.195278658183785,73.941792596877,640537,264085,238342,7843,3915,3928,92669,45124,47545,249590,180411,69179,206616,42974,390947,15952,12640,5846,215152,341664,63623,231961,855,542,563,102191,138810,17624,251493,29874,73039,119869,108989,64786,57460,314480,194872,130605,35031,82436,99.0,78.0
Gujarat,Ahmadabad,22.605425564971743,72.23898135593227,7214225,3025463,2410297,759483,399075,360408,89138,47106,42032,2594952,2127547,467405,2332409,262543,4619273,142670,268954,54876,2128452,6042416,883238,50754,14542,4518,209287,965017,1456046,126341,2198552,761358,1614370,805199,1135058,549188,839295,3952858,2043895,1198152,174812,692591,90.0,75.0
Gujarat,Amreli,21.04832649310872,71.43457637825426,1514190,558180,437279,132915,68518,64397,7322,3856,3466,657139,453642,203497,529153,127986,857051,232126,209935,6083,208995,1410463,99105,919,415,243,2053,80378,273331,2538,430613,230474,412251,120625,149478,66785,50999,836343,389892,282409,10236,113906,96.0,66.0
Gujarat,Anand,22.282718206229863,72.57782051557454,2092745,874481,676772,104465,54476,49989,24824,12761,12063,844794,627561,217233,690031,154763,1247951,152412,346329,16460,329593,1798794,250919,29789,1524,267,8591,147122,378310,9902,621987,257524,560542,229013,283571,127459,110351,1134962,585093,366419,19352,104613,92.0,74.0
Gujarat,Banas Kantha,24.258538965517253,71.93205252873561,3120506,1048402,656521,327460,169288,158172,284155,144355,139800,1248600,836268,412332,1012080,236520,1871906,475585,350541,11812,410662,2890305,213505,1686,486,281,12659,84832,396873,3424,804197,366867,859436,159433,226765,105372,66950,1984701,738412,394793,22723,68665,94.0,55.0
Gujarat,Bharuch,21.75787276237761,72.67326346710801,1551019,623047,495229,62235,31979,30256,488194,250398,237796,627124,468919,158205,526541,100583,923895,78120,253577,8902,286525,1188204,343511,9494,1733,442,4813,121542,309091,10257,481996,161675,367060,164765,188539,83895,74380,844298,442523,254728,21579,104126,93.0,72.0
Gujarat,Bhavnagar,21.70219390341736,72.16272632761141,2880365,1087371,799884,157034,80827,76207,9110,4751,4359,1150632,838781,311851,992140,158492,1729733,231796,334025,17996,566815,2632574,212863,3457,1410,445,26974,171327,500757,7297,744077,422461,929286,266953,281250,96241,93391,1708938,720241,445121,17517,200864,93.0,66.0
Gujarat,Gandhinagar,23.193679790026252,72.67221679790026,1391753,582686,447808,108608,56919,51689,18204,9711,8493,534976,408075,126901,451951,83025,856777,104147,129356,8600,292873,1319586,57273,3237,1985,497,6405,132683,262539,12107,433258,136131,363156,133594,196456,95730,108400,769329,391862,224886,26385,106981,92.0,74.0
Gujarat,Jamnagar,22.410600414263328,69.62062005768233,2160119,795140,601394,173895,89597,84298,24187,12415,11772,847440,646822,200618,721253,126187,1312679,264318,147193,11359,424570,1810443,320805,4392,1873,1086,18856,142974,386538,11573,646325,255785,491009,194057,199634,74029,87523,1220598,576319,358455,20471,185194,94.0,65.0
Gujarat,Kachchh,23.48057203301311,68.82192301497916,2092371,739239,513080,258859,133224,125635,24228,12825,11403,776228,624704,151524,686937,89291,1316143,105876,183971,10802,475579,1608921,442355,6192,6353,490,25312,140067,403294,9631,739275,246956,469402,141345,157284,61366,60386,1278604,524052,286086,28788,140540,91.0,60.0
Gujarat,Kheda,22.88765312500002,73.018803515625,2299885,942480,717763,115631,59734,55897,40336,21057,19279,933983,674586,259397,722134,211849,1365902,239241,359842,12455,322445,2000884,264482,26629,1403,300,3479,99982,372226,5710,622026,295057,641541,250044,310341,148530,84223,1260660,628221,388646,12788,84414,94.0,72.0
Gujarat,Mahesana,23.529355452865065,72.45545194085031,2035064,847499,655146,162288,84470,77818,9392,4879,4513,812064,588699,223365,698768,113296,1223000,189760,242969,10282,369053,1885732,136431,1954,1082,146,7087,180985,385609,7759,659743,260278,467128,183468,266108,139208,130723,1119451,554432,357578,25163,119579,93.0,74.0
Gujarat,Narmada,21.70666386292833,73.68403208722742,590297,211767,158569,8733,4465,4268,481392,244524,236868,294795,174282,120513,193916,100879,295502,62823,188030,2594,41348,559848,22600,4413,147,80,373,12997,101940,576,160369,76197,146661,58188,52687,28396,14748,336830,157910,93466,2442,18771,96.0,63.0
Gujarat,Navsari,20.866973318871995,72.86184869848157,1329672,539471,462438,35464,17959,17505,639659,319740,319919,591834,407881,183953,510004,81830,737838,112809,206608,7173,265244,1225087,78669,5733,2459,601,13386,114620,267679,6726,409156,145678,266733,140235,190861,112460,85041,673014,390349,258957,18669,115177,96.0,75.0
Gujarat,Panch Mahals,22.80435606837605,73.61984598290586,2390776,858054,582751,100446,51278,49168,721604,368348,353256,1097507,673565,423942,685141,412366,1293269,456768,376038,10771,253930,2220974,158513,2863,662,337,5236,59096,398937,3456,567601,255905,601358,205420,283648,139773,71810,1421859,599925,363391,9656,72703,95.0,60.0
Gujarat,Patan,23.80634198473284,71.75162977099237,1343734,494631,343282,123408,64190,59218,13303,6835,6468,554830,383074,171756,446240,108590,788904,136590,227080,6392,184768,1194745,142797,916,337,66,3602,66310,223424,2231,404138,168990,364667,78731,129584,57494,46355,786357,341381,213465,7802,41235,94.0,62.0
Gujarat,Porbandar,21.55092351651571,69.71896987722886,585449,221621,172057,51830,26607,25223,13039,6730,6309,231169,174118,57051,195437,35732,354280,65702,48964,2371,114132,549749,33565,500,248,91,515,41686,117040,1653,183572,50588,150643,71637,63458,25119,22458,314886,163777,105638,4395,45156,95.0,67.0
Gujarat,Rajkot,22.40603377715488,70.83679439383323,3804558,1514075,1210981,290169,149782,140387,24017,12504,11513,1479050,1159480,319570,1324783,154267,2325508,349357,214285,23780,891628,3397406,361388,5478,1918,1170,33591,362140,747352,21785,1181006,383780,913928,402240,540278,204306,266295,2080568,1052871,659576,55289,428744,93.0,72.0
Gujarat,Sabar Kantha,23.71803594548552,73.13638790459964,2428589,918625,660109,187685,96527,91158,542156,272531,269625,1084878,681435,403443,795096,289782,1343711,366711,333867,10909,373391,2260560,148563,6375,614,168,11110,99037,438606,5262,665533,214062,597667,211423,333650,198963,110817,1393131,630963,400905,22379,122399,95.0,65.0
Gujarat,Surat,21.25761372772093,72.93488716344339,6081322,2687468,1883942,158115,82202,75913,856952,432089,424863,2553542,2142819,410723,2405288,148254,3527780,109549,325739,42040,2076214,5260193,660772,21052,5703,12902,112835,815423,1252452,55694,1899838,566242,1332690,807021,896927,433651,379505,3563443,1740746,723415,106983,530528,79.0,75.0
Gujarat,Surendranagar,22.82672007299272,71.48358740875906,1756268,643221,450405,179461,93427,86034,21453,11068,10385,723500,504038,219462,586364,137136,1032768,185235,270861,9518,257886,1620282,109681,1419,512,312,22992,77857,302068,2975,500598,234873,482679,165406,172947,61164,58389,1033435,439352,280582,10088,99436,93.0,62.0
Gujarat,The Dangs,20.801633877551023,73.6883518367347,228291,77314,63654,992,490,502,216073,107539,108534,118257,61329,56928,88038,30219,110034,64561,40486,1172,12038,203545,3593,20029,69,32,39,2029,29794,137,59618,43639,59954,17736,14872,7560,3490,146095,51821,30027,991,5662,101.0,62.0
Gujarat,Vadodara,22.26133739279589,73.49433010291594,4165626,1614087,1278993,221629,114602,107027,1149901,586665,563236,1693473,1233312,460161,1360660,332813,2472153,312126,570361,17680,793306,3713941,384579,23813,9340,2069,27650,411734,798277,53606,1240425,396624,865726,457662,504732,268451,314960,2213474,1190041,733710,72630,351423,93.0,69.0
Gujarat,Valsad,20.44238231644259,72.9148584798345,1705678,655528,515129,38237,19557,18680,902794,450976,451818,743245,516188,227057,577327,165918,962433,147569,183025,11833,400818,1571147,94034,19661,1589,913,13809,137209,329218,11020,498391,165459,303197,171712,212318,123281,90912,944532,485874,259906,23938,128491,92.0,69.0
Haryana,Ambala,30.3503672316384,76.94970310734456,1128350,461288,356737,296246,156874,139372,0,0,0,372139,320120,52019,319475,52664,756211,52871,57293,15753,246222,955096,22143,3705,138202,381,4845,121622,199681,12899,315256,89558,170110,161844,163544,97980,91472,617859,308126,201685,26122,92424,88.0,72.0
Haryana,Bhiwani,28.728868064516128,76.02110225806452,1634445,643158,426713,341162,181475,159687,0,0,0,623006,430678,192328,445675,177331,1011439,288543,103788,14855,215820,1611031,15515,873,2401,254,1016,88938,266244,5292,456282,186145,223049,198307,218631,148995,104875,964960,405760,261428,16793,66069,89.0,65.0
Haryana,Faridabad,28.14873109756098,77.32718536585368,1809733,734940,537799,223799,119495,104304,0,0,0,579229,476933,102296,495316,83913,1230504,27705,29288,32286,489950,1588407,161680,9743,34572,640,4883,258422,333171,43437,470681,137902,220384,198551,282666,178846,259933,1095602,481318,231029,63470,152884,87.0,70.0
Haryana,Fatehabad,29.57298318584072,75.54608716814157,942011,327471,230107,284357,149111,135246,0,0,0,369083,263498,105585,286258,82825,572928,132250,97997,6558,132278,779243,8360,996,150969,171,1172,51693,153301,3210,258380,103541,136663,99948,93526,61476,37741,555745,237009,147469,14030,52633,90.0,59.0
Haryana,Gurgaon,28.043894789579163,77.01935130260523,1514432,638666,472450,197937,104332,93605,0,0,0,544716,432456,112260,487441,57275,969716,56046,27097,18228,443345,1408801,70842,9725,15097,944,7451,238359,305751,67087,523691,126920,177453,175370,219200,150120,233402,875531,428101,210307,92934,131478,85.0,73.0
Haryana,Hisar,29.23628731117825,75.84324682779452,1743931,670200,444111,408785,217338,191447,0,0,0,691621,488321,203300,531227,160394,1052310,261120,144213,16097,270191,1701061,21650,1945,12270,334,3620,110495,285004,10132,456126,197303,230074,194595,202792,144626,105346,1017830,456536,265109,24642,90721,87.0,64.0
Haryana,Jhajjar,28.59651868131869,76.61137142857145,958405,399480,276611,170448,90856,79592,0,0,0,326534,250020,76514,246457,80077,631871,112389,44845,9254,160046,945693,8247,734,1042,105,645,70149,168558,5034,290144,90737,109829,115794,145258,97457,58826,549975,245095,162356,14298,52868,86.0,71.0
Haryana,Jind,29.45149821958457,76.29598575667653,1334152,502049,330709,282351,150940,131411,0,0,0,523422,368277,155145,385851,137571,810730,230387,102071,9114,181850,1276669,23016,889,29103,172,2594,78386,222462,5263,368000,136892,185626,151682,154773,107994,64599,784085,335704,213478,15836,61694,87.0,62.0
Haryana,Kaithal,29.96068539094649,76.37698930041155,1074304,385782,260747,247513,131486,116027,0,0,0,373899,292696,81203,290663,83236,700405,128016,85651,9450,150782,974520,8232,1769,87558,265,351,62668,187349,3724,306787,119345,158239,124682,117753,82297,51043,630194,265813,176320,12792,59238,88.0,60.0
Haryana,Karnal,29.703200647249204,76.87488025889972,1505324,564516,413497,339604,179681,159923,0,0,0,516062,411646,104416,411533,104529,989262,112288,133723,15311,254740,1341002,31650,2049,126207,532,1516,143133,267223,11163,428602,155839,231354,188040,183590,124790,101387,884972,380409,234684,26238,108101,89.0,65.0
Haryana,Kurukshetra,30.05652659846548,76.78774680306903,964655,370828,276065,215128,113311,101817,0,0,0,336780,268556,68224,285904,50876,627875,68908,85890,6726,175256,805175,15970,1943,140395,214,375,90150,171908,7356,291821,94530,145392,118107,120790,81964,71007,552034,250830,160216,20261,73765,89.0,67.0
Haryana,Mahendragarh,28.1352161458333,76.14018072916659,922088,380440,249815,156314,82420,73894,0,0,0,338584,232935,105649,212402,126182,583504,149146,38320,7639,143479,913251,5660,301,1737,75,644,45359,135455,2624,267942,94273,135849,126291,132765,94245,60296,530000,229392,161258,8538,45775,89.0,68.0
Haryana,Panchkula,30.700897142857134,76.97173238095236,561293,229862,175456,101830,53868,47962,0,0,0,211479,164865,46614,182831,28648,349814,26682,12827,9870,162100,490702,23451,2583,40951,1008,1626,69687,103455,18615,164551,45607,73584,60177,69163,48306,83256,309078,157076,93606,29497,49972,87.0,72.0
Haryana,Panipat,29.34352134146342,76.92895914634147,1205437,464136,322463,206213,109695,96518,0,0,0,412318,328667,83651,339016,73302,793119,72120,62358,15824,262016,1083936,86622,2261,25064,289,4647,121846,209965,10024,327306,118873,170565,143466,141473,91756,75774,739075,298764,167244,17466,74923,86.0,65.0
Haryana,Rewari,28.19164714828897,76.55956007604564,900332,375453,261494,182606,95571,87035,0,0,0,337727,235326,102401,250219,87508,562605,102698,28215,9782,197032,889133,5713,701,1804,202,1525,62667,152651,5121,268754,81280,120860,122617,139646,95807,65143,518747,230704,150557,12161,58897,90.0,71.0
Haryana,Rohtak,28.892517647058817,76.53123235294117,1061204,436025,311557,216889,115573,101316,0,0,0,345967,272646,73321,288949,57018,715237,95732,36568,8521,205146,1043887,8185,732,3916,200,3491,94633,193120,8482,306942,117097,150903,140782,168499,109596,100346,605741,269354,185685,16545,63575,87.0,70.0
Haryana,Sirsa,29.63583446327684,74.90970480225988,1295189,456968,325929,387381,202430,184951,0,0,0,502003,369462,132541,399169,102834,793186,164297,147042,11952,178712,940255,9524,2186,338962,370,2256,70538,215527,6287,338792,141766,201349,153263,134559,83373,61620,750228,334344,208185,24468,75692,90.0,60.0
Himachal Pradesh,Chamba,32.66741814595661,76.39354063116366,519080,186064,137778,111690,56154,55536,135500,67900,67600,294035,158791,135244,119632,174403,225045,196665,9193,4521,83656,479782,32455,1559,2745,1740,57,21458,96082,1615,200231,56272,96789,67653,64515,40440,15506,306555,130606,81566,5074,8880,99.0,62.0
Himachal Pradesh,Hamirpur,31.67668481012659,76.49767088607594,454768,180555,177536,109256,53727,55529,3044,1531,1513,241931,118724,123207,126153,115778,212837,147103,8824,3347,82657,449412,3711,243,591,95,293,34978,104120,2521,211348,37327,71107,72114,91184,64363,35620,224044,123941,106641,6665,16955,110.0,79.0
Himachal Pradesh,Hamirpur,31.67668481012659,76.49767088607594,1104285,408125,245174,241198,130269,110929,474,259,215,443655,308527,135128,290375,153280,660630,130314,181449,19876,112016,1010014,91269,814,196,74,41,20175,55929,1196,311381,159593,238344,211029,103334,59914,59612,660774,260368,181109,3791,24522,86.0,59.0
Uttar Pradesh,Hamirpur,25.738158381502892,79.82619479768789,454768,180555,177536,109256,53727,55529,3044,1531,1513,241931,118724,123207,126153,115778,212837,147103,8824,3347,82657,449412,3711,243,591,95,293,34978,104120,2521,211348,37327,71107,72114,91184,64363,35620,224044,123941,106641,6665,16955,110.0,79.0
Uttar Pradesh,Hamirpur,25.738158381502892,79.82619479768789,1104285,408125,245174,241198,130269,110929,474,259,215,443655,308527,135128,290375,153280,660630,130314,181449,19876,112016,1010014,91269,814,196,74,41,20175,55929,1196,311381,159593,238344,211029,103334,59914,59612,660774,260368,181109,3791,24522,86.0,59.0
Himachal Pradesh,Kangra,32.14093603238864,76.41205910931173,1510075,606443,546197,319385,159697,159688,84564,41745,42819,675170,403756,271414,313915,361255,834905,303007,54849,15662,301652,1461140,19797,3023,8929,14511,194,148361,330081,8053,627328,127699,243617,223099,284124,192936,91236,766581,419172,319420,22727,69192,101.0,76.0
Himachal Pradesh,Kinnaur,31.60667184065933,78.51613736263741,84121,36697,24002,14750,7433,7317,48746,23609,25137,56273,33863,22410,46782,9491,27848,32995,2537,944,19797,64732,448,485,249,18086,29,10740,17865,354,44514,9400,13749,11437,11140,7871,5118,42360,26599,15075,2775,857,82.0,72.0
Himachal Pradesh,Kullu,31.90911922077925,77.40922649350647,437903,174550,133122,122659,62686,59973,16822,8493,8329,269084,148829,120255,193876,75208,168819,197141,12372,2707,56864,415669,2974,1568,1396,15377,94,40064,91322,2623,188704,48384,77363,61854,58122,39081,23168,244727,120510,72282,8479,6979,94.0,70.0
Himachal Pradesh,Mandi,31.635805940594054,76.96556930693067,999777,393669,330078,293739,147250,146489,12787,6345,6442,572671,297464,275207,284154,288517,427106,387944,15822,7134,161771,981412,9460,876,4081,2628,43,59324,214491,5333,462825,100052,159043,132147,180188,128549,54139,524285,279321,194661,15958,26366,101.0,72.0
Himachal Pradesh,Shimla,31.155725451807253,77.62573042168668,814010,342846,269796,215777,110828,104949,8755,4554,4201,430926,258628,172298,311770,119156,383084,249786,26114,7967,147059,791449,11810,2025,4047,3262,185,108888,172754,9177,375165,69967,113536,113305,141490,95341,80414,425721,241956,145577,23107,8186,92.0,75.0
Himachal Pradesh,Sirmaur,30.682764453961443,77.43184689507493,529855,205617,157028,160745,83017,77728,11262,5912,5350,280083,169399,110684,193906,86177,249772,182958,10730,5313,81082,476830,33215,577,15501,2645,236,28904,91509,2220,192156,57853,100123,78103,67080,38282,23352,310244,136839,82471,7459,17523,92.0,68.0
Himachal Pradesh,Solan,31.03864311926604,76.94442140672783,580320,244372,184206,164536,85482,79054,25645,13351,12294,298737,190001,108736,219235,79502,281583,141267,10283,4969,142218,548579,14678,1452,13926,574,591,53722,119866,5250,244296,50331,89407,83992,95232,59363,36803,321533,167168,90808,15117,25275,88.0,74.0
Himachal Pradesh,Una,31.58330388349513,76.18353932038836,521173,213281,186434,115491,58601,56890,8601,4445,4156,215346,141612,73734,134482,80864,305827,84800,19604,3427,107515,480138,14275,390,26009,56,70,43809,105929,2412,205217,51838,87913,81256,105204,60626,32120,273223,142351,105358,8059,36913,98.0,77.0
Jammu and Kashmir,Doda,33.359614675767915,76.07163720136518,409936,138620,80463,53408,27209,26199,39216,20377,18839,151912,101144,50768,79377,72535,258024,69947,12199,1932,67834,187621,220614,472,422,21,22,7963,61831,596,133617,43794,47350,62719,48359,31416,12647,263576,93189,52744,1804,1550,92.0,53.0
Jammu and Kashmir,Jammu,32.713199095022645,74.8477520361991,1529958,641916,495219,377991,197610,180381,69193,36323,32870,508622,417456,91166,410344,98278,1021336,68613,36873,10589,392547,1289240,107489,12104,114272,470,1987,197168,294739,19905,502609,135391,185962,253542,261852,159257,146501,816827,435895,275585,44063,113156,88.0,74.0
Jammu and Kashmir,Kargil,33.565994894894914,76.63675315315312,140802,56301,29935,18,12,6,122336,62652,59684,51873,39839,12034,28941,22932,88929,8266,3763,1222,38622,10341,108239,604,1171,20126,28,3285,15824,235,48144,12732,19083,20874,16938,9826,3077,87532,35561,17488,1847,652,81.0,61.0
Jammu and Kashmir,Kathua,32.51781678321678,75.58901398601404,616435,228499,160705,141224,74644,66580,53307,27693,25614,200431,161548,38883,142847,57584,416004,69533,21566,3952,105380,540063,64234,1828,9551,24,16,32772,109422,1443,214847,69396,82715,106411,91522,47694,24330,357864,160123,97684,4687,23014,89.0,63.0
Jammu and Kashmir,Pulwama,33.88414418604652,75.00921860465118,560440,178326,115632,402,397,5,22607,11837,10770,188420,138428,49992,98306,90114,372020,49746,34080,10615,93979,13840,535159,1109,9440,35,6,16828,73629,1537,169223,36201,54808,73991,67368,40931,31286,342601,137032,80111,6164,4551,91.0,52.0
Jammu and Kashmir,Punch,33.791241290322574,74.29593161290322,476835,163333,98391,556,406,150,176101,90274,85827,161393,117677,43716,73247,88146,315442,54264,31583,3930,71616,32604,431279,958,11188,83,10,13160,62900,346,147408,55762,72024,69219,46062,29517,13962,304979,109818,61334,1731,2407,89.0,55.0
Jammu and Kashmir,Srinagar,34.27312898550724,75.11021159420288,1236829,431746,316838,1068,995,73,8935,5021,3914,407188,333151,74037,330547,76641,829641,12228,10408,20095,364457,42540,1177342,2746,12187,285,74,138119,165403,16413,262239,88911,173309,178723,176409,132727,121856,693238,351561,190330,34586,39804,90.0,61.0
Jammu and Kashmir,Udhampur,33.04770670731707,75.15286951219511,554985,197543,124811,138569,72093,66476,56309,29142,27167,243672,163845,79827,152442,91230,311313,113020,11396,2641,116615,489044,59771,1962,3418,106,57,20008,73999,1214,183360,58567,80129,86008,55024,29657,17345,339145,140785,74757,3800,8953,87.0,58.0
Jharkhand,Bokaro,23.6814965034965,85.98398374125864,2062330,759088,514432,299227,154297,144930,255626,129233,126393,685368,507677,177691,380304,305064,1376962,137521,126406,21671,399770,1636460,241451,13730,4174,1890,2045,67157,274726,9754,508764,242467,338861,342646,232434,154076,116396,1261238,510375,282115,21098,108998,92.0,62.0
Jharkhand,Chatra,24.11619945750453,84.93295804701627,1042886,303902,206159,340553,172668,167885,45563,23141,22422,397690,251213,146477,195502,202188,645196,119297,188513,14210,75670,903179,116710,6565,888,35,129,5307,27037,590,215502,200861,161729,102033,63670,35342,21697,692650,222892,126682,2110,15107,95.0,49.0
Jharkhand,Deoghar,24.33070100755672,86.75697632241814,1492073,489837,303701,190036,98295,91741,180962,91012,89950,551467,383691,167776,297146,254321,940606,128656,209693,39361,173757,1165140,302626,6027,143,188,282,26760,130193,1944,321710,217460,266292,190171,96331,54419,43979,944961,338413,205514,3714,32553,93.0,53.0
Jharkhand,Dhanbad,23.854509090909097,86.40372924901185,2684487,1014950,707254,437309,226362,210947,233119,117256,115863,844504,658851,185653,546714,297790,1839983,97118,103488,25889,618009,2149480,431762,11243,9727,331,1268,83995,427173,11568,664219,317918,501453,449506,305054,186697,107382,1634835,648876,356445,18631,131398,91.0,64.0
Jharkhand,Dumka,24.275006125574265,87.27662450229711,1321442,406275,266134,79614,40802,38812,571077,282125,288952,624779,367108,257671,237479,387300,696663,193402,303084,23106,105187,1044726,106865,86404,234,267,162,11836,62110,1193,326978,229157,229259,149009,69525,38383,25593,799323,324226,196164,2912,23058,98.0,51.0
Jharkhand,Garhwa,24.082114689265527,83.68664265536722,1322784,405161,248315,319946,165313,154633,205874,104499,101375,571431,335451,235980,175126,396305,751353,113561,328673,14487,114710,1104475,194680,17168,123,371,20,6798,29373,565,292052,207665,195565,147446,87844,46882,28144,860869,284036,177599,2671,16578,94.0,49.0
Jharkhand,Giridih,24.30578509874329,86.08710915619386,2445474,783736,469739,325493,166447,159046,238188,120646,117542,1036277,623946,412331,412912,623365,1409197,369913,362610,32544,271210,1856202,508586,14645,937,650,1503,16909,125431,1944,499450,503261,443980,261309,146464,77540,55122,1597269,533788,312967,6290,57582,94.0,51.0
Jharkhand,Godda,24.8189,87.2941735483871,1313551,376212,228307,115567,59835,55732,279208,138510,140698,552191,344019,208172,235735,316456,761360,144603,307767,18719,81102,937126,289182,37795,97,128,115,7421,43230,874,292030,217607,190777,126766,79430,47395,30870,820367,308639,183519,1754,19859,94.0,46.0
Jharkhand,Gumla,23.078532948929148,84.55056787479396,1025213,321795,237925,32459,16446,16013,706754,352514,354240,487508,264774,222734,278931,208577,537705,321272,97918,12771,55547,309563,51429,202449,221,531,23,9108,31687,831,233074,136719,242580,182260,82114,45613,23742,643579,225871,155452,2181,16146,99.0,55.0
Jharkhand,Jamtara,23.97873318077801,86.95325080091534,791042,258260,168052,72885,37212,35673,240489,120035,120454,326631,214740,111891,122434,204197,464411,106008,135667,11547,73409,550560,164406,4419,520,118,783,5564,49419,808,185668,131150,132014,85745,40613,22995,14802,480895,189889,116810,1632,16906,95.0,54.0
Jharkhand,Latehar,23.72511185840708,84.48298743362837,726978,209706,140976,154910,78266,76644,331096,166427,164669,313379,180106,133273,117311,196068,413599,103693,142729,9205,57752,473049,69808,47653,120,128,16,2177,38194,340,160514,109491,121529,88787,46142,23885,13956,484084,152720,89870,1268,8012,97.0,48.0
Jharkhand,Lohardaga,23.488796043165483,84.6605169064748,461790,149568,110139,15330,7862,7468,262734,130814,131920,221332,121605,99727,103001,118331,240458,99780,80840,4449,36263,112378,95012,16770,51,33,15,8016,28769,351,111484,82873,84920,63545,38503,21987,13847,298844,100340,62244,1102,10065,99.0,56.0
Jharkhand,Pakur,24.57260428082189,87.69691969178076,900422,206989,145892,28469,14352,14117,379054,186967,192087,404584,234012,170572,252017,152567,495838,105334,150028,19471,129751,410127,322963,75865,356,283,222,5316,31414,328,217175,100367,133770,79045,29934,15700,9822,587976,206826,104418,923,9725,99.0,39.0
Jharkhand,Palamu,24.196925968109337,84.20310842824594,1939869,621706,402857,536382,277119,259263,181208,92577,88631,713175,473042,240133,283702,429473,1226694,133585,380976,19911,178703,1683169,238295,6164,734,188,284,17270,68238,2155,407904,303053,296937,231565,160964,100290,63595,1244572,425668,268387,8015,29434,93.0,53.0
Jharkhand,Ranchi,23.184235061391547,85.31781937244203,2914253,1085244,826189,152943,78613,74330,1042016,520582,521434,1142867,743967,398900,756176,386691,1771386,317487,267360,38452,519568,1612239,410759,193974,4826,932,2733,164237,350908,22538,730982,361522,547583,495515,370847,247237,195181,1742293,725938,409166,34053,141089,95.0,66.0
Jharkhand,Sahibganj,24.93667989690721,87.68264097938142,1150567,287303,195960,72341,37317,35024,308343,153435,154908,490202,295690,194512,322572,167630,660365,109975,206902,43179,130146,628044,398243,83208,198,245,125,11545,34879,591,260993,146399,171416,110822,52248,28087,19832,745027,261849,137727,1285,10359,95.0,42.0
Jharkhand,Simdega,22.608760391198054,84.59193691931536,599578,191991,151492,44674,22150,22524,424407,211546,212861,288645,159867,128778,155510,133135,310933,158019,90232,8011,32383,201524,15103,306601,51,753,114,3472,16865,423,155283,82317,130068,97580,47836,24842,13674,357859,143560,97817,1158,9742,100.0,57.0
Karnataka,Bagalkot,16.15860676328503,75.64526070853468,1889752,641388,472024,319149,158135,161014,97203,48470,48733,818081,511575,306506,676407,141674,1071671,196199,303243,44797,273842,1634229,219991,3433,443,412,25198,49345,301389,3745,490657,242336,385986,147397,171505,115095,82319,1123443,465706,299774,9726,69279,99.0,59.0
Karnataka,Bangalore Rural,12.936827087794448,77.47369314775169,990923,385311,303438,213700,107424,106276,52903,27147,25756,459891,315499,144392,389989,69902,531032,127770,84108,19457,228556,890429,92252,5368,389,272,1045,77454,214253,3729,326462,100770,168165,126285,166677,82235,51015,535765,278153,176083,10389,69005,95.0,70.0
Karnataka,Belgaum,16.16107219152853,74.72329042357275,4779661,1725548,1326484,577418,289096,288322,297198,148673,148525,2105668,1372422,733246,1734501,371167,2673993,711980,649517,60342,683829,4038331,528412,18418,2037,1086,178310,240742,808827,17560,1318975,544564,1057297,609600,532584,279583,201884,2669348,1251116,857143,35104,228887,97.0,64.0
Karnataka,Bellary,15.074377548209377,76.47228471074374,2452595,813440,608181,517409,258582,258827,451406,225451,225955,1116880,703258,413622,969388,147492,1335715,258080,406092,22832,429876,2103633,320834,14014,1029,284,8044,114040,440374,9626,623480,275785,529576,219702,203139,121453,89475,1487013,617276,346905,14163,111250,98.0,58.0
Karnataka,Bidar,17.950361730769224,77.19459961538459,1703300,597198,445475,399785,204280,195505,235822,119787,116035,702608,459050,243558,551763,150845,1000692,141302,280091,18095,263120,1289709,335184,35438,1145,30453,680,34924,271439,3971,389403,188998,474921,194233,181076,105347,54900,1018195,397120,287271,9724,44813,96.0,61.0
Karnataka,Bijapur,16.84015316666667,75.95909166666665,255230,54076,32843,10122,5145,4977,204189,101519,102670,134525,71591,62934,69338,65187,120705,66504,49859,1399,16763,245151,1617,2709,68,1649,15,1022,12516,117,58391,25597,22787,14170,7192,6755,3421,167348,63802,23927,305,2625,98.0,34.0
Karnataka,Bijapur,16.84015316666667,75.95909166666665,2177331,730566,517702,442773,226440,216333,39314,19912,19402,927722,580111,347611,760083,167639,1249609,262217,351600,25379,288526,1786830,369588,2433,558,374,8665,58890,326594,4987,527490,246391,430477,143199,182756,129109,96990,1295274,527085,353549,11722,67663,96.0,57.0
Karnataka,Chikmagalur,13.425288289676422,75.67626502311249,1137961,438257,380088,253651,125016,128635,44970,21990,22980,565774,357889,207885,480229,85545,572187,155392,126600,8873,274909,1004553,101235,26000,182,109,4710,74534,238505,4510,392426,114570,257550,160083,177585,96470,72420,564994,341380,230864,15446,59192,101.0,72.0
Karnataka,Chitradurga,14.29102220394736,76.57821957236843,1659456,607188,480204,389117,196819,192298,302554,152939,149615,856587,513311,343276,667479,189108,802869,286245,294337,26235,249770,1520553,128751,3175,322,84,3778,60522,307257,5711,447348,188329,332648,196470,217567,132435,75262,891230,460057,306412,7425,55959,97.0,66.0
Karnataka,Davanagere,14.330414586709884,75.91723841166937,1945497,720637,587903,392595,198299,194296,233112,117808,115304,875207,585639,289568,705099,170108,1070290,230846,295873,31438,317050,1658465,265805,5420,307,164,6417,100812,372671,7320,530691,242130,446793,206686,269748,154781,123863,1068518,538551,336173,15449,90291,97.0,67.0
Karnataka,Dharwad,15.343831376975173,75.13831264108359,1847023,711776,589888,177855,89137,88718,87548,44173,43375,784833,543776,241057,690948,93885,1062190,164279,207642,16463,396449,1390020,386834,28747,1486,715,29037,140584,347962,15013,483104,252596,383041,185530,227113,143453,137768,1017935,505688,322577,21127,91208,97.0,70.0
Karnataka,Gadag,15.507128256880746,75.64861302752298,1064570,397178,302999,174196,87745,86451,61654,30975,30679,495722,310412,185310,423451,72271,568848,127441,200310,15485,152486,907750,143665,3432,231,79,5993,31959,198064,3373,291972,121615,244640,112703,105150,63816,42053,601578,279069,183409,5205,30957,98.0,66.0
Karnataka,Gulbarga,17.070459515951594,76.87503850385033,2566326,828359,599009,648782,330091,318691,65259,32830,32429,1087028,680001,407027,844237,242791,1479298,220198,415267,25891,425672,2011014,513125,8344,826,9589,4865,77334,404767,9752,600007,177860,579057,270622,290570,153746,104256,1570719,604665,388935,12872,73797,97.0,56.0
Karnataka,Hassan,12.945098749999998,76.11049549999997,1776421,668836,556420,345031,169961,175070,32329,15986,16343,903580,560452,343128,752387,151193,872841,437034,165910,16126,284510,1630814,120011,15611,289,623,5820,90599,400702,4851,628981,182255,354480,232531,292369,147837,103152,877340,522039,375918,14979,97603,101.0,69.0
Karnataka,Haveri,14.737582809224318,75.3961230607966,1597668,603793,481650,219976,112212,107764,141380,72109,69271,730066,490731,239335,601951,128115,867602,203055,311263,20217,195531,1281878,297927,2406,419,68,9834,41517,295937,2456,413564,240925,430529,201965,158442,84357,55310,904453,426094,266586,5681,47577,95.0,68.0
Karnataka,Kodagu,12.39684468085106,75.79336595744688,554519,215302,197575,73584,35759,37825,58054,28510,29544,278938,172100,106838,258753,20185,275581,21174,15153,1549,241062,448986,87274,17130,139,126,250,40958,113931,3308,212974,51287,111562,75291,86232,54939,43225,276918,163360,113919,16963,22161,102.0,74.0
Karnataka,Kolar,13.312799881235172,78.01376947743476,1536401,564110,452109,465867,232546,233321,78875,39997,38878,717872,454048,263824,584590,133282,818529,183057,201233,24178,309404,1305431,199873,26722,253,150,2494,72407,309494,5051,477609,138015,289841,228422,225498,107929,71422,841499,419380,274240,9208,85198,98.0,66.0
Karnataka,Koppal,15.651253271028034,76.1617048598131,1389920,468785,340300,258608,129341,129267,164271,82761,81510,654766,387974,266792,508089,146677,735154,163413,273016,18794,199543,1218024,161770,4081,296,85,2898,31673,223166,2135,337649,222140,357098,127605,113028,72243,43967,855430,330393,202984,6211,45100,99.0,58.0
Karnataka,Mandya,12.574901806239744,76.81570098522172,1805769,638668,510981,265294,131675,133619,22402,11310,11092,871408,575203,296205,714901,156507,934361,388981,216159,17834,248434,1712695,77801,8506,322,299,3607,80452,391033,3367,562302,145178,309476,226552,308624,157839,102838,902307,527236,375100,8188,96273,100.0,64.0
Karnataka,Mysore,12.248100259403367,76.52881802853437,3001127,1063766,898414,536643,269331,267312,334547,166697,167850,1314268,921803,392465,1082108,232160,1686859,349337,311002,28162,625767,2631985,290549,39361,1255,16194,14419,273706,640868,28397,920982,207091,537686,404565,452412,222230,212541,1580116,865220,553705,40420,211066,99.0,65.0
Karnataka,Raichur,16.050795353982295,76.87368606194688,1928812,577213,402556,400933,200359,200574,367071,182101,184970,903413,530373,373040,725985,177428,1025399,245299,383526,19095,255493,1634062,272022,10394,538,2265,4156,51443,314547,5200,455848,147743,385673,163709,153346,82082,50463,1196670,465173,265810,11104,70603,100.0,51.0
Karnataka,Shimoga,14.063845885634592,75.17882078103197,1752753,674938,588078,308158,153546,154612,65412,32707,32705,780598,534487,246111,652789,127809,972155,204493,246464,15087,314554,1479424,234664,26521,400,120,9234,128087,363835,8791,554106,191641,385978,292481,251095,132138,111753,913150,513297,325542,20781,111532,100.0,72.0
Karnataka,Tumkur,13.592467760074973,77.02297966260545,2678980,1006024,807367,506901,254535,252366,209559,105265,104294,1354646,837512,517134,1078431,276215,1324334,505910,352286,54523,441927,2413812,245923,9130,477,187,5067,116539,562769,7971,890242,270373,500593,386998,423738,213588,143735,1351461,760936,564196,14929,137806,98.0,68.0
Karnataka,Udupi,13.450404228534568,74.72009990316337,1177361,465704,460725,75429,36988,38441,52897,26228,26669,513241,335399,177842,459446,53795,664120,63143,63390,10580,376128,1009179,96740,65838,232,161,4534,83810,224814,9070,385389,142493,286193,176260,178094,109663,107279,559565,340903,276234,21349,65169,109.0,79.0
Kerala,Alappuzha,9.542602965599087,76.38010796263319,2127789,890552,962245,201211,97183,104028,6574,3175,3399,804471,536738,267733,596387,208084,1323318,25237,71706,35865,671663,1460447,224545,435056,268,146,74,274392,507913,28842,723536,133039,334339,418953,573306,274789,198858,891512,648522,585591,42404,144891,110.0,87.0
Kerala,Ernakulam,10.004879301987431,76.26957729035381,3282388,1425723,1429953,268411,131573,136838,16559,8349,8210,1249343,913249,336094,1061388,187955,2033045,50423,71391,23976,1103553,1509557,514397,1248137,860,614,1176,499291,771287,88737,1174691,212263,446380,554817,702511,389793,429880,1396968,1024720,858010,135307,322394,103.0,87.0
Kerala,Idukki,9.80480963855423,77.04586641566264,1108974,471881,451129,145486,72399,73087,55815,27995,27820,516363,331710,184653,415947,100416,592611,100917,145698,6888,262860,541854,82206,481507,100,189,44,54626,244844,8250,412433,79149,166604,209398,261237,136428,86136,494456,352163,261471,21976,35855,101.0,83.0
Kerala,Kannur,11.941523076923056,75.35209891725934,2523003,1012956,1125478,83350,40260,43090,41371,20141,21230,824116,609377,214739,694209,129907,1698887,36549,82988,12875,691704,1509592,742483,262526,424,1118,193,115356,511167,32653,872479,204713,487016,491844,540383,308670,217203,1187177,741984,588081,44108,76530,114.0,85.0
Kerala,Kasaragod,12.33310309912974,75.07768497134369,1307375,516476,521016,53283,26385,26898,48857,23950,24907,462998,325095,137903,372700,90298,844377,23732,38774,24496,375996,729987,486913,87454,151,362,130,74092,237670,10378,417805,115476,268084,230416,238900,122657,76192,688763,369883,246975,19438,34267,108.0,79.0
Kerala,Kollam,8.929388820570157,76.6360775852431,2635375,1074345,1165928,328263,157801,170462,10761,5195,5566,912025,644362,267663,695299,216726,1723350,56693,92193,21511,741628,1697635,508500,421598,208,272,63,263148,630767,31542,925130,172247,406592,562529,595191,307950,233402,1177359,795245,660965,58867,144080,111.0,85.0
Kerala,Kottayam,9.643701174068417,76.46059673302705,1974551,861592,888206,153909,75503,78406,21972,10974,10998,735735,530322,205413,604553,131182,1238816,49991,63052,18523,604169,983598,126499,858608,204,358,83,187213,464039,37849,678161,117681,271496,373998,475724,280720,221350,811653,596302,565048,73096,122177,104.0,89.0
Kerala,Kozhikode,11.392924270557026,75.71158720159153,3086293,1266939,1348504,199191,97279,101912,15228,7429,7799,948981,752333,196648,754187,194794,2137312,26543,64198,13312,844928,1734958,1211131,131516,297,235,601,145558,641660,36791,990336,247996,564392,647221,630818,351267,250117,1487644,909581,686109,54277,149330,110.0,85.0
Kerala,Malappuram,10.97329875666072,75.93910775606876,4112920,1597404,1713911,308266,151557,156709,22990,11272,11718,1062424,898157,164267,852047,210377,3050496,57567,117405,18423,869029,1135259,2888849,81556,205,179,68,139994,730119,27909,1157129,415601,770417,814285,933793,392867,203779,2406005,1041361,662311,59145,138096,110.0,81.0
Kerala,Palakkad,10.784926903553291,76.49980490693744,2809934,1122600,1116892,403833,197451,206382,48972,24314,24658,1042340,746121,296219,875540,166800,1767594,67805,249949,25035,699551,1875980,812936,114397,220,238,78,178386,587583,27162,894341,249198,492864,608176,572412,232109,180540,1395222,802611,608966,43458,145549,107.0,80.0
Kerala,Thiruvananthapuram,8.537101759082221,76.88711502868073,3301427,1354857,1430551,372977,178589,194388,26759,12624,14135,1231669,864101,367568,921282,310387,2069758,38837,94470,28587,1069775,2194057,452915,630573,404,301,76,343590,783872,71621,1169117,206328,460690,642470,682156,389161,381782,1488441,989238,820024,96456,220675,109.0,84.0
Kerala,Thrissur,10.458932647907687,76.12321940836945,3121200,1282261,1396287,324350,156480,167870,9430,4362,5068,1095727,789511,306216,929506,166221,2025473,41786,73941,27883,952117,1823442,532839,757484,259,278,62,338350,721625,56148,1051867,222627,445696,524387,821831,362657,338600,1394214,931841,792182,84016,220583,111.0,86.0
Kerala,Wayanad,11.715277464788736,76.07587007042254,817420,328136,317449,32578,16406,16172,151443,74476,76967,340077,228639,111438,263445,76632,477343,52759,101630,4574,181114,404460,234185,174453,61,312,1797,23028,149864,4712,277988,65326,144896,137227,184266,87042,51111,412806,246590,157326,13027,22721,103.0,79.0
Madhya Pradesh,Anuppur,23.18184220430107,81.86560000000007,749237,254120,182475,74385,37841,36544,358543,177977,180566,346471,207401,139070,227040,119431,402766,115448,130376,7051,93596,686524,21473,2132,606,86,1653,23388,81338,1290,207713,113208,115716,93450,58536,42743,31646,444954,193520,109813,2895,29063,98.0,58.0
Madhya Pradesh,Ashoknagar,24.63098846153845,77.82974493927134,845071,290304,178805,175764,92216,83548,82072,42447,39625,315270,231829,83441,241288,73982,529801,116913,122387,10559,65411,778214,40707,635,8009,1352,15094,15886,84720,619,206741,148647,117053,62802,51499,29551,22791,535410,194772,114131,2373,23638,90.0,56.0
Madhya Pradesh,Balaghat,21.80020720640569,80.42170053380796,1701698,626468,521155,125426,61576,63850,383026,186979,196047,893014,488610,404404,530506,362508,808684,257785,459796,19245,156188,1519384,38542,5295,1050,72162,4778,27283,277927,1712,470867,290699,312640,235251,168635,126308,74213,969773,453605,276799,4045,46168,102.0,67.0
Madhya Pradesh,Barwani,21.702135714285724,74.91004719710673,1385881,313642,236284,87991,44478,43513,962145,482182,479963,653897,365928,287969,525791,128106,731984,287704,267196,7451,91546,1318869,58222,2967,2361,416,2289,30115,181139,1158,299270,157337,137116,74067,59100,42649,30754,923665,302833,158594,3102,31152,98.0,40.0
Madhya Pradesh,Betul,21.964626315789477,77.7873428189117,1575362,529783,409986,159296,81621,77675,667018,333166,333852,786980,453887,333093,511287,275693,788382,253602,358157,11849,163372,1505745,37590,3271,1078,9651,3759,45270,230974,2109,406649,239114,232532,176325,140402,105696,82761,938819,392728,242592,5740,59230,97.0,60.0
Madhya Pradesh,Bhind,26.35951126187245,78.7618324287653,1703005,676513,418404,374799,204212,170587,6131,3283,2848,520768,455775,64993,422111,98657,1182237,231185,158266,9838,121479,1595400,66776,973,4047,12215,19950,32268,107819,1166,359596,202629,261162,199044,140743,96011,50222,1040736,399676,258588,4463,46137,84.0,64.0
Madhya Pradesh,Bhopal,23.480726143790854,77.39246623093679,2371061,920314,740376,357516,185902,171614,69429,35966,33463,867457,644960,222497,706036,161421,1503604,73346,105195,24732,664184,1755861,525434,23432,10789,21688,25950,281442,452912,40788,700719,229082,303171,287198,211371,178165,266618,1405814,625594,330291,60383,213130,92.0,70.0
Madhya Pradesh,Burhanpur,21.364567254408065,76.24460478589425,757847,233073,175606,64254,33037,31217,230095,116420,113675,328339,211925,116414,274900,53439,429508,67799,156295,8077,96168,552526,180840,1199,1074,19883,1884,40478,112420,986,178840,107547,119468,69765,57058,42618,28237,469838,181605,106034,2142,22453,95.0,54.0
Madhya Pradesh,Chhatarpur,24.813637376460004,79.56449299191374,1762375,572010,371023,405313,215258,190055,73597,38081,35516,751797,481518,270279,553862,197935,1010578,302228,238364,26390,184815,1676918,70351,1980,968,250,10409,36506,176056,1880,470917,270951,236054,160310,112961,77787,59704,1112636,394060,252417,6206,48339,88.0,54.0
Madhya Pradesh,Chhindwara,22.227966971713823,78.76413136439254,2090922,731294,562904,232244,118465,113779,769778,385785,383993,957984,582263,375721,673845,284139,1132938,283111,422668,14585,237620,1923920,100692,4893,2258,24471,7830,73284,344875,3588,553944,284113,336391,225747,215098,167946,112383,1232263,535316,321977,8235,75332,96.0,62.0
Madhya Pradesh,Damoh,23.76624407960196,79.47049303482588,1264219,445737,301978,246337,129877,116460,166295,84809,81486,574595,367711,206884,389993,184602,689624,114611,250165,67383,142436,1186420,47966,1681,1096,119,25005,23270,187731,1432,369901,197917,217296,150040,95032,64414,41158,768929,312593,181403,3031,28333,91.0,59.0
Madhya Pradesh,Datia,25.90226439560441,78.63916571428574,786754,303815,187630,200270,107132,93138,15061,7870,7191,321160,225662,95498,247229,73931,465594,152903,93744,6839,67674,747693,28483,683,490,7923,453,17555,97696,616,203854,132176,131372,88949,73398,48978,34853,473097,195131,118186,2897,25575,87.0,62.0
Madhya Pradesh,Dewas,22.7851110021322,76.46088805970157,1563715,550716,374653,292007,150260,141747,272701,139174,133527,742676,451501,291175,528526,214150,821039,260222,310606,11816,160032,1376591,174259,2355,2330,382,6497,59521,270457,3518,376009,242508,225380,149522,125772,94403,55383,943954,388648,230280,9017,77281,94.0,59.0
Madhya Pradesh,Dhar,22.572681718963157,75.1105620736698,2185793,638479,438859,145436,74291,71145,1222814,614619,608195,1027974,597079,430895,783019,244955,1157819,385522,437437,15830,189185,2051219,116202,2261,1607,328,12199,75637,349639,2388,515712,262090,244058,164576,134279,99882,66721,1377326,533243,273050,8080,85477,96.0,49.0
Madhya Pradesh,Dindori,22.83738437047757,81.04332966714911,704524,222759,155955,39782,20366,19416,455789,225699,230090,389925,203383,186542,250137,139788,314599,150084,190962,7958,40921,605435,6736,4238,260,61,687,4576,62372,554,227795,103002,113875,84065,49277,31104,15179,419531,181841,102522,1291,7979,100.0,54.0
Madhya Pradesh,Guna,24.49043927178156,77.2235895968791,1241519,400537,253443,193115,100646,92469,190819,98206,92613,514897,335454,179443,353671,161226,726622,213949,175615,12079,113254,1172248,49203,1208,3271,529,13474,34184,144248,2482,285085,197902,157141,84560,79924,50724,42147,793150,285176,162104,5968,43568,91.0,53.0
Madhya Pradesh,Gwalior,26.04074441964285,78.12782433035713,2032036,803114,554096,393068,210354,182714,72133,37704,34429,685311,548820,136491,559845,125466,1346725,130586,120348,22592,411785,1835299,141735,4119,24790,4361,18058,165061,306859,15779,444892,235648,235924,204871,193082,166719,193947,1218319,519728,291451,21313,126189,86.0,67.0
Madhya Pradesh,Harda,22.227659781121783,77.07022571819435,570465,203807,148743,92865,48553,44312,159678,81446,78232,230979,156852,74127,163781,67198,339486,68019,101256,6459,55245,527462,38640,683,676,93,1573,22174,95066,986,144559,90059,87733,60757,46556,31939,27126,347774,138882,83417,3556,30952,93.0,62.0
Madhya Pradesh,Hoshangabad,22.595268801996703,78.02168094841929,1241350,469199,341445,205007,107237,97770,197300,101041,96259,478082,345435,132647,361648,116434,763268,116440,181967,9982,169693,1175203,52269,4453,3127,1550,3888,61415,198076,2871,315396,159703,183156,145076,119682,89589,84769,730768,318232,191501,7335,67460,91.0,65.0
Madhya Pradesh,Indore,22.680265752128648,75.9133801324502,3276697,1289631,1019499,545239,280184,265055,217679,112687,104992,1268195,939055,329140,1137251,130944,2008502,150907,185528,43584,888176,2728225,415142,18523,25696,11496,71667,417170,593576,48691,788318,428413,472233,384611,362209,300076,382658,1877270,894464,493096,64865,286973,93.0,70.0
Madhya Pradesh,Jabalpur,23.18525572327043,79.98328754716981,2463289,980307,776161,348029,179858,168171,375231,189915,185316,1005624,705970,299654,744287,261337,1457665,106882,283636,69946,545160,2159065,203652,23142,13256,4320,33728,192581,452023,20443,624761,267932,352284,313910,268333,222987,235072,1387369,679185,391903,26487,154678,93.0,71.0
Madhya Pradesh,Jhabua,22.419578015397768,74.40921616766468,1025048,214582,137499,17427,8770,8657,891818,446359,445459,515121,265489,249632,370641,144480,509927,329175,115649,5132,65165,960925,15733,38423,141,65,8871,16683,125411,744,235793,98308,79781,40466,38236,28990,20240,684200,220769,119681,2215,20076,99.0,34.0
Madhya Pradesh,Katni,23.724416229116937,80.33819665871127,1292042,460583,330190,155717,79369,76348,317699,159799,157900,543874,348410,195464,316144,227730,748168,112812,223902,31261,175899,1240650,37232,3158,1167,157,5342,38086,172416,2179,349031,198447,207366,161727,112242,80935,53578,778414,326582,185857,3958,35359,95.0,61.0
Madhya Pradesh,Mandla,22.70348712446353,80.38600543633753,1054905,348033,256929,48425,24652,23773,610528,299918,310610,559649,300235,259414,325159,234490,495256,148931,318909,9453,82356,849518,16558,12450,436,297,1789,18413,143803,912,316932,156711,170994,115632,82166,58066,35476,614794,278553,160510,2246,19880,101.0,57.0
Madhya Pradesh,Mandsaur,24.19278764044944,75.43588667736759,1340411,502898,331693,249024,126822,122202,33092,17023,16069,679723,397714,282009,535066,144657,660688,281465,266350,8556,123352,1192588,125548,1120,849,242,19029,47723,239885,2324,384119,244891,217234,149219,109751,77219,52546,781000,346861,211815,5435,62695,96.0,62.0
Madhya Pradesh,Morena,26.37313504531724,77.88447341389724,1965970,747652,432033,421519,228548,192971,17030,8947,8083,675993,525329,150664,520970,155023,1289977,304674,148222,16354,206743,1875495,76159,1092,557,3234,6681,45113,131486,1781,414586,288979,285682,228234,170254,115790,71005,1254302,452484,257704,5829,48525,84.0,60.0
Madhya Pradesh,Neemuch,24.70311893333336,75.06608186666664,826067,307889,200945,111162,56400,54762,71441,36738,34703,418682,245708,172974,358500,60182,407385,175602,136330,4020,102730,741288,67324,1508,1110,224,14165,34666,145258,1945,242197,137656,127167,83189,69134,53465,42343,476995,217403,131227,4498,47549,95.0,62.0
Madhya Pradesh,Panna,24.451325840092657,80.21133001158752,1016520,332140,220419,207990,109421,98569,170879,87697,83182,431998,275375,156623,276633,155365,584522,135445,198847,12201,85505,974748,35214,418,186,37,4734,13285,76097,653,288923,171707,134936,99251,70359,47903,29795,635347,235035,144827,2219,18488,91.0,54.0
Madhya Pradesh,Raisen,23.292518206521724,78.16305495923909,1331597,479093,341127,225891,119226,106665,205006,105627,99379,517838,370366,147472,370241,147597,813759,138725,228151,17316,133646,1195235,120331,1725,2262,253,10637,34499,194373,1141,325713,237981,210402,144108,117908,69419,48384,832939,316319,181524,6017,48130,90.0,62.0
Madhya Pradesh,Rajgarh,23.785499026425583,76.66431223922116,1545814,488797,315448,295718,151260,144458,53751,27477,26274,745603,429768,315835,471773,273830,800211,285095,330820,12123,117565,1433879,106928,1243,460,121,1599,30688,231130,1611,401717,239738,174381,103464,96386,72316,51499,935230,363218,246447,4185,46026,96.0,52.0
Madhya Pradesh,Ratlam,23.503562290502792,75.14895782122909,1455069,485090,340790,198612,100629,97983,409865,206290,203575,690980,411446,279534,471139,219841,764089,218692,305946,11928,154414,1267043,151071,3996,1353,175,29353,67830,213825,3644,373867,224715,194131,129392,111461,86507,67192,876905,363858,213560,5757,67819,97.0,57.0
Madhya Pradesh,Rewa,24.861184625158856,81.57572465057183,2365106,845572,596185,383508,198144,185364,311985,161696,150289,991946,617184,374762,630251,361695,1373160,258321,463506,50878,219241,2268838,85414,1964,832,986,655,45180,251132,3406,618399,344362,330131,312931,206274,180635,122371,1460075,540235,362228,11833,67856,93.0,61.0
Madhya Pradesh,Sagar,23.800318709677374,78.71940357771273,2378458,908607,637112,501630,266306,235324,221936,114771,107165,1006035,682077,323958,779093,226942,1372423,203600,378560,140458,283417,2198297,103480,5580,4146,991,62992,68482,366494,4546,613915,347752,426916,297079,214137,137899,116753,1470688,569166,335432,11291,71201,89.0,65.0
Madhya Pradesh,Satna,24.62777621776502,80.75547048710598,2228935,801051,570730,398569,205987,192582,319975,163166,156809,911349,590487,320862,612510,298839,1317586,227967,371584,46056,265742,2158623,59471,2228,1163,364,3135,55196,294702,3754,576004,338947,334635,309536,197373,148091,105499,1365647,535086,326049,9401,64484,93.0,62.0
Madhya Pradesh,Sehore,22.9297199679658,77.06780202883085,1311332,469208,311154,271281,141366,129915,145512,74391,71121,586087,364559,221528,372150,213937,725245,201307,227026,9917,147837,1163607,137980,1404,640,357,6232,30868,212138,1566,329647,193885,179388,136284,120687,77541,50655,817608,305605,187611,6041,60435,92.0,60.0
Madhya Pradesh,Seoni,22.33230487804874,79.66053863928111,1379131,485341,378853,130797,66830,63967,519856,258121,261735,684434,394660,289774,397575,286859,694697,173665,376404,11957,122408,1145052,79739,1857,360,7288,4982,26893,228695,1182,382587,223650,241327,151636,116124,84398,55984,809922,363037,205237,4048,37873,98.0,63.0
Madhya Pradesh,Shahdol,23.44859864559819,81.4596831828442,1066063,348761,255433,89733,45547,44186,476008,236947,239061,493057,292402,200655,240811,252246,573006,95795,258991,14329,123942,997073,42426,2372,912,268,1737,24255,113184,1733,291440,161972,154282,128427,80402,60915,46513,645619,269145,150655,3819,29839,97.0,57.0
Madhya Pradesh,Shajapur,23.566620317220547,76.33555181268885,1512681,543509,351103,353914,182961,170953,37836,19416,18420,717871,431857,286014,508833,209038,794810,287924,303157,8809,117981,1321003,174724,815,631,179,13755,32204,232735,1382,386608,271215,239081,141225,111366,75967,48671,901161,369741,240768,4200,49847,94.0,59.0
Madhya Pradesh,Sheopur,25.78014810996563,77.16911116838484,687861,208201,119824,108391,57838,50553,161448,82637,78811,277455,183788,93667,196189,81266,410406,106745,115261,4166,51283,638702,41396,230,6387,201,379,11701,74770,273,176522,90911,70840,43009,37072,24732,17091,449974,155063,82416,1634,17878,90.0,48.0
Madhya Pradesh,Shivpuri,25.37802451874367,77.74861600810549,1726050,573242,327604,321515,171565,149950,227802,117111,110691,759281,481001,278280,577723,181558,966769,383340,220440,13079,142422,1648749,51200,1117,7151,3421,12171,35706,148128,1852,434618,261087,214162,125117,84684,58509,44812,1106084,389652,227989,5417,48952,88.0,52.0
Madhya Pradesh,Sidhi,24.17547189952905,82.1053783359498,1127033,353030,247755,130202,66174,64028,313304,159192,154112,461760,284289,177471,275482,186278,665273,102644,262030,15654,81432,1077545,34419,511,128,92,93,9569,102228,837,276869,185550,168224,129344,80312,60845,33067,721531,253685,150959,3320,18017,96.0,53.0
Madhya Pradesh,Tikamgarh,25.14099852104666,78.89357064846428,1445166,459353,288587,361604,190666,170938,67857,34923,32934,655318,402776,252542,470432,184886,789848,305859,223852,15622,109985,1383475,44143,588,251,109,15569,21489,132725,1090,382992,202448,188694,143231,78053,58245,35034,898323,343824,201875,4139,35388,90.0,52.0
Madhya Pradesh,Ujjain,23.319288862745065,75.80383717647058,1986864,730817,510173,523869,267235,256634,48730,24925,23805,897442,569425,328017,682115,215327,1089422,289013,302003,19678,286748,1718204,233133,4659,3241,945,24622,123526,323379,7501,489449,286534,280030,178295,159263,119586,111290,1156749,508302,320502,12167,107407,96.0,62.0
Madhya Pradesh,Umaria,23.59601063063061,80.90879477477475,644758,210907,145765,58147,29902,28245,300687,151988,148699,289691,175698,113993,138600,151091,355067,65369,145690,8767,69865,620515,15966,667,190,70,220,12713,67975,839,168066,90791,94011,74854,43418,27216,18144,403030,158140,82984,1873,14918,95.0,55.0
Madhya Pradesh,Vidisha,23.82838307984792,77.9013507604563,1458875,512344,350574,292144,154504,137640,67603,34993,32610,550402,401583,148819,397283,153119,908473,168615,228308,12408,141071,1287391,149548,1313,914,295,18490,41617,181510,1926,376409,242021,214603,123650,104007,65581,59814,919239,335690,203005,5682,55126,90.0,59.0
Maharashtra,Akola,20.746310479041902,77.12122320359276,1813906,758977,652304,364059,186244,177815,100280,51359,48921,768154,520362,247792,691025,77129,1045752,129680,388521,9660,240293,1107809,357253,4483,1504,328033,10205,107463,314490,6163,504235,231841,328367,275264,291391,205723,112574,998769,483200,327932,9037,72460,95.0,78.0
Maharashtra,Amravati,21.16520991810736,77.67583503184723,2888445,1207104,1044771,506374,259398,246976,404128,205834,198294,1236322,837577,398745,1061544,174778,1652123,198793,667943,20998,348588,2055177,421410,7223,2242,383891,11360,175917,512492,9438,781815,326195,468853,463051,525116,346876,203273,1540590,783549,553265,15285,124261,95.0,78.0
Maharashtra,Bhandara,21.211792649727748,80.10950199637024,1200334,488709,411151,200372,100421,99951,88886,44515,44371,597305,345054,252251,413838,183467,603029,123099,312183,17169,144854,1009352,26502,2145,831,154458,1017,55948,227025,2932,356418,115150,187870,208902,204435,153749,67061,626978,333120,232754,5184,54974,98.0,75.0
Maharashtra,Bid,18.952353340080982,75.69319706477731,2585049,987185,731322,351254,179777,171477,32722,16806,15916,1255548,727819,527729,1154708,100840,1329501,606280,373566,21093,254609,2174672,320395,2097,824,68482,8719,82098,402052,5614,698571,309704,436446,280800,316758,206530,129996,1473882,614615,494436,12836,91909,92.0,66.0
Maharashtra,Buldana,20.56680611183355,76.39017880364096,2586258,1048892,830982,470895,241445,229450,124837,64153,60684,1219641,734024,485617,1107542,112099,1366617,385447,603227,13770,217197,1845424,354236,3531,1668,364229,12242,103898,423036,4767,728192,315408,457067,400342,406379,228266,113783,1467457,641840,473071,10034,84546,93.0,73.0
Maharashtra,Chandrapur,20.095609090909075,79.31556380471388,2204307,872565,706050,348365,176898,171467,389441,196753,192688,1058172,648565,409607,804433,253739,1146135,220978,473983,21346,341865,1780085,92297,10701,5251,286734,3861,172661,418666,8239,684655,243773,316192,337320,351610,241179,126488,1163802,629890,403719,12746,113039,96.0,72.0
Maharashtra,Dhule,21.274018690400517,74.58719071837263,2050862,723388,570528,127571,65068,62503,647315,327034,320281,936370,570448,365922,825875,110495,1114492,239139,429536,20646,247049,1825460,187901,3653,1422,13405,12818,126138,315332,6065,528790,200494,323641,208571,290656,182739,114931,1167569,513908,350747,10912,74859,95.0,63.0
Maharashtra,Gondiya,21.225008411214997,80.17522698598128,1322507,542837,461406,175961,87434,88527,214253,105944,108309,665419,383151,282268,433962,231457,657088,186509,281414,32525,164971,1153861,26157,1827,2160,125282,1568,38044,239981,2866,386515,138457,237888,231153,225595,159570,57923,704214,371908,244111,5074,49085,100.0,76.0
Maharashtra,Hingoli,19.59525302245251,77.09239412780653,1177345,450551,340192,182565,93379,89186,111954,57674,54280,569182,330903,238279,514371,54811,608163,241613,226483,8268,92818,863199,127552,992,643,176679,5278,27700,159114,1221,284369,175736,266649,127246,136075,74544,38698,692117,281905,201828,3833,29815,94.0,67.0
Maharashtra,Jalgaon,20.8828943415638,75.55140421810695,4229917,1629223,1262659,389273,199427,189846,604367,310150,294217,1863571,1186472,677099,1643955,219616,2366346,384359,937174,38930,503108,3457615,560261,7091,3091,143865,27404,350029,720791,14297,1169788,482462,735730,532587,627198,375643,229987,2352671,1080237,763529,19560,170551,92.0,68.0
Maharashtra,Jalna,19.984612534818933,75.98473607242339,1959046,699428,496095,272266,138957,133309,42263,21988,20275,930886,545030,385856,844492,86394,1028160,418952,300937,16705,194292,1504641,274221,12542,1629,152540,9619,60219,288895,3791,502830,271061,422207,218189,225331,120715,64060,1150104,454836,341479,8400,75655,94.0,61.0
Maharashtra,Kolhapur,16.44881301587301,74.12897150793648,3876001,1559760,1266085,504461,253390,251071,30206,15478,14728,1704054,1125204,578850,1508563,195491,2171947,660872,266028,59932,717222,3379906,286558,15573,1570,29766,154882,340318,770005,22269,1179314,321457,622362,487227,698604,395234,335413,1972486,1084858,801590,49081,283565,96.0,73.0
Maharashtra,Latur,18.348687268993856,76.75812607802874,2454196,932432,718240,480913,247918,232995,57488,29872,27616,1046857,670018,376839,964177,82680,1407339,331780,416578,17663,280836,2006984,367664,2387,935,66535,6387,96018,381722,6217,585632,268627,423711,296910,380344,224998,153256,1406364,584243,453229,13150,81052,93.0,67.0
Maharashtra,Nagpur,21.196556862745105,79.02166176470584,4653570,1959220,1714588,867713,439205,428508,437571,223566,214005,1868560,1334211,534349,1654778,213782,2785010,206606,423587,52419,1185948,3492202,390974,34667,20469,668050,24528,599780,917626,57964,1308366,325084,666693,812381,790443,542228,493236,2460820,1361821,818467,71592,426007,95.0,79.0
Maharashtra,Nanded,19.209316983017,77.6829048951049,3361292,1255222,934203,640483,328797,311686,281695,143892,137803,1493953,925232,568721,1317791,176162,1867339,447823,632395,29158,384577,2501741,471951,3902,13540,354189,5049,116284,488748,7548,821682,416869,691348,368723,416761,255650,156225,2008314,809135,535827,12341,83106,94.0,65.0
Maharashtra,Nandurbar,21.523175625248147,74.32638757443429,1648295,512099,394410,47985,24273,23712,1141933,568026,573907,792065,442898,349167,664193,127872,856230,211672,438176,14599,127618,1521618,96182,8467,685,4969,6191,54335,186202,2579,405012,166664,218718,121404,160961,113019,58461,1011352,390419,241534,6135,39350,98.0,55.0
Maharashtra,Nashik,20.266912871287143,74.03824168316828,6107187,2397538,1947828,554687,282213,272474,1564369,792547,771822,2763328,1746286,1017042,2523023,240305,3343859,967385,730228,56132,1009583,5237009,693052,23946,8912,94783,38212,536781,904710,45039,1668932,544346,1038955,851714,830070,485052,373100,3580633,1567252,948469,79590,396040,93.0,71.0
Maharashtra,Osmanabad,18.19459456066944,75.99495575313809,1657576,644304,493506,265184,136354,128830,36039,18569,17470,773916,473795,300121,701894,72022,883660,297361,299525,19831,157199,1437623,178925,942,340,28216,4530,49180,240042,3209,444990,183972,300965,201646,260772,139479,96847,917343,393539,343021,7974,51577,92.0,69.0
Maharashtra,Parbhani,19.31032425249168,76.70163338870431,1836086,666291,491523,247308,125883,121425,40514,20570,19944,822797,501422,321375,756417,66380,1013289,295030,317806,13210,196751,1328385,306364,2081,1371,187899,6238,59272,272486,3982,427239,229217,396713,204316,229103,116041,81333,1078349,436486,313455,6973,50197,95.0,63.0
Maharashtra,Pune,18.51696171428573,74.12922881632647,9429408,3940210,3231513,1180703,602755,577948,348876,179132,169744,4048993,2809816,1239177,3751221,297772,5380415,886530,414461,105711,2642291,8090254,673704,134192,27090,340404,127786,1410448,1925019,235018,3222457,559840,1234549,1383055,1414563,867256,1086650,5184734,2624165,1586132,273326,1013058,91.0,76.0
Maharashtra,Ratnagiri,17.210195070127703,73.25725893866404,1615069,619012,580380,66948,31967,34981,20374,10402,9972,714076,407008,307068,554973,159103,900993,296913,153117,17230,246816,1307211,187197,1990,230,113467,3347,100860,367352,7752,639362,163025,378554,269872,247257,111600,65700,777431,438905,396967,15191,61559,112.0,74.0
Maharashtra,Sangli,17.154930181086502,74.70713822937628,2822143,1121550,927917,353093,177108,175985,18333,9406,8927,1215104,800214,414890,1074948,140156,1607039,480554,290693,40824,403033,2440312,239607,9098,1260,38210,87453,227034,485126,13212,853673,208511,507318,459156,453404,244804,214003,1450907,752303,603739,29515,190760,97.0,73.0
Maharashtra,Satara,17.6737908974359,74.18052064102558,3003741,1201034,1024660,323236,161703,161533,29635,15210,14425,1354947,844805,510142,1184407,170540,1648794,585876,297241,39772,432058,2691952,146970,4408,1182,141315,12810,271186,562653,14093,975471,288427,495822,407977,556706,299993,243457,1517324,800492,671702,36046,195582,99.0,74.0
Maharashtra,Sindhudurg,16.170948049777163,73.51329008172343,849651,348289,317778,55586,26830,28756,6976,3575,3401,347178,229676,117502,226538,120640,502473,124812,81816,9679,130871,780384,26264,15471,219,24762,1046,42540,194228,3517,340836,86480,165284,134734,175070,89023,48418,382024,242296,222963,9264,37159,104.0,78.0
Maharashtra,Solapur,17.837357937584812,75.42394823609216,4317756,1651266,1259410,649745,331960,317785,77592,39785,37807,1898395,1206933,691462,1763175,135220,2419361,637250,558334,71106,631705,3795424,441254,9882,1279,35497,28134,248255,595560,15145,1156231,390337,788150,535848,643327,328020,236302,2402794,1089900,809935,28219,229240,94.0,67.0
Maharashtra,Thane,19.698767747440264,72.79882742564581,11060148,4591396,3635765,730089,377885,352204,1542451,769192,773259,4492767,3363123,1129644,3930511,562256,6567381,349931,418004,124461,3600371,8716055,1355630,280700,39149,449617,172052,1610460,2231800,256170,3618151,712171,1530916,1588196,1751284,1080597,961719,6184519,3241888,1579921,172210,499186,89.0,74.0
Maharashtra,Wardha,20.80743024390242,78.57259105691062,1300774,552617,466841,188830,96569,92261,149507,76698,72809,608235,392316,215919,529623,78612,692539,132989,282170,13785,179291,1057096,53854,2696,2147,175417,5663,114029,266155,4313,388704,140470,186781,201471,225208,158055,93772,659540,370227,270107,6970,70849,95.0,78.0
Maharashtra,Washim,20.282282394366213,77.25502394366208,1197160,487703,382214,229462,117867,111595,80471,41403,39068,569792,340353,229439,502755,67037,627368,165598,310195,7122,86877,859949,142672,1707,518,179330,8476,36840,196022,1875,330846,166509,238985,160331,162762,116032,47865,682919,302425,210185,3623,37729,93.0,73.0
Maharashtra,Yavatmal,20.04258346738159,78.05326371760479,2772348,1115980,906594,328518,167009,161509,514057,260896,253161,1355999,815475,540524,1195100,160899,1416349,333504,739718,17899,264878,2251401,239236,4567,1596,249874,11422,134500,446516,6094,798132,391944,562739,382001,389924,245819,123074,1549263,733258,483813,12132,99346,95.0,73.0
Manipur,Bishnupur,24.50712111801243,93.8246236024845,237399,87313,69020,22113,11085,11028,3287,1625,1662,109937,62807,47130,76423,33514,127462,34358,15109,11567,48903,175102,18691,4264,56,76,16,11393,34364,676,56149,15941,36011,50004,31775,20077,20074,135220,62907,38815,2009,5782,100.0,66.0
Manipur,Chandel,24.2635812987013,94.09443844155844,144182,51053,39249,540,321,219,128280,63622,64658,76238,42615,33623,53753,22485,67944,43255,8315,3040,21628,10810,3086,129049,136,400,59,1424,18764,184,34160,17382,28163,30589,18971,12213,8105,86255,39324,18329,908,3263,93.0,63.0
Manipur,Churachandpur,24.30309718875504,93.38671506024085,274143,104013,91922,443,244,199,254787,126328,128459,122655,70594,52061,89779,32876,151488,64834,8282,5067,44472,12034,2886,254979,152,495,87,13371,29894,837,57825,32860,67907,65475,38567,23284,14523,168608,67802,37096,1807,6387,97.0,71.0
Manipur,Senapati,25.08465586034914,94.03366234413956,479148,148012,116465,1000,536,464,419210,214519,204691,233622,124143,109479,185725,47897,245526,175127,30369,4978,42307,43833,1649,426819,140,2409,53,2430,22798,256,39834,46757,81735,91395,62033,40438,24940,314439,111516,52008,827,1603,94.0,55.0
